"","time_usec","domain","count"
"1",2020-01-17,"stackoverflow.com",0
"2",2020-01-17,"wikipedia.org",1
"3",2020-01-17,"github.com",0
"4",2020-01-17,"pw.edu.pl",0
"5",2020-01-17,"youtube.com",0
"6",2020-01-17,"google.com",7
"7",2020-01-17,"facebook.com",0
"8",2020-01-17,"instagram.com",0
"9",2020-01-18,"stackoverflow.com",0
"10",2020-01-18,"wikipedia.org",0
"11",2020-01-18,"github.com",0
"12",2020-01-18,"pw.edu.pl",0
"13",2020-01-18,"youtube.com",0
"14",2020-01-18,"google.com",33
"15",2020-01-18,"facebook.com",0
"16",2020-01-18,"instagram.com",0
"17",2020-01-19,"stackoverflow.com",0
"18",2020-01-19,"wikipedia.org",0
"19",2020-01-19,"github.com",0
"20",2020-01-19,"pw.edu.pl",0
"21",2020-01-19,"youtube.com",1
"22",2020-01-19,"google.com",35
"23",2020-01-19,"facebook.com",10
"24",2020-01-19,"instagram.com",0
"25",2020-01-20,"stackoverflow.com",0
"26",2020-01-20,"wikipedia.org",1
"27",2020-01-20,"github.com",0
"28",2020-01-20,"pw.edu.pl",0
"29",2020-01-20,"youtube.com",3
"30",2020-01-20,"google.com",57
"31",2020-01-20,"facebook.com",11
"32",2020-01-20,"instagram.com",0
"33",2020-01-21,"stackoverflow.com",0
"34",2020-01-21,"wikipedia.org",0
"35",2020-01-21,"github.com",0
"36",2020-01-21,"pw.edu.pl",0
"37",2020-01-21,"youtube.com",0
"38",2020-01-21,"google.com",60
"39",2020-01-21,"facebook.com",8
"40",2020-01-21,"instagram.com",0
"41",2020-01-22,"stackoverflow.com",0
"42",2020-01-22,"wikipedia.org",1
"43",2020-01-22,"github.com",0
"44",2020-01-22,"pw.edu.pl",2
"45",2020-01-22,"youtube.com",8
"46",2020-01-22,"google.com",125
"47",2020-01-22,"facebook.com",18
"48",2020-01-22,"instagram.com",0
"49",2020-01-23,"stackoverflow.com",0
"50",2020-01-23,"wikipedia.org",2
"51",2020-01-23,"github.com",0
"52",2020-01-23,"pw.edu.pl",0
"53",2020-01-23,"youtube.com",12
"54",2020-01-23,"google.com",60
"55",2020-01-23,"facebook.com",0
"56",2020-01-23,"instagram.com",0
"57",2020-01-24,"stackoverflow.com",0
"58",2020-01-24,"wikipedia.org",0
"59",2020-01-24,"github.com",0
"60",2020-01-24,"pw.edu.pl",0
"61",2020-01-24,"youtube.com",0
"62",2020-01-24,"google.com",14
"63",2020-01-24,"facebook.com",0
"64",2020-01-24,"instagram.com",0
"65",2020-01-25,"stackoverflow.com",0
"66",2020-01-25,"wikipedia.org",0
"67",2020-01-25,"github.com",0
"68",2020-01-25,"pw.edu.pl",0
"69",2020-01-25,"youtube.com",0
"70",2020-01-25,"google.com",31
"71",2020-01-25,"facebook.com",2
"72",2020-01-25,"instagram.com",0
"73",2020-01-26,"stackoverflow.com",0
"74",2020-01-26,"wikipedia.org",0
"75",2020-01-26,"github.com",0
"76",2020-01-26,"pw.edu.pl",0
"77",2020-01-26,"youtube.com",11
"78",2020-01-26,"google.com",25
"79",2020-01-26,"facebook.com",0
"80",2020-01-26,"instagram.com",0
"81",2020-01-27,"stackoverflow.com",0
"82",2020-01-27,"wikipedia.org",0
"83",2020-01-27,"github.com",0
"84",2020-01-27,"pw.edu.pl",0
"85",2020-01-27,"youtube.com",0
"86",2020-01-27,"google.com",51
"87",2020-01-27,"facebook.com",0
"88",2020-01-27,"instagram.com",0
"89",2020-01-28,"stackoverflow.com",0
"90",2020-01-28,"wikipedia.org",2
"91",2020-01-28,"github.com",0
"92",2020-01-28,"pw.edu.pl",0
"93",2020-01-28,"youtube.com",25
"94",2020-01-28,"google.com",25
"95",2020-01-28,"facebook.com",0
"96",2020-01-28,"instagram.com",0
"97",2020-01-29,"stackoverflow.com",0
"98",2020-01-29,"wikipedia.org",1
"99",2020-01-29,"github.com",0
"100",2020-01-29,"pw.edu.pl",0
"101",2020-01-29,"youtube.com",16
"102",2020-01-29,"google.com",111
"103",2020-01-29,"facebook.com",10
"104",2020-01-29,"instagram.com",0
"105",2020-01-30,"stackoverflow.com",0
"106",2020-01-30,"wikipedia.org",0
"107",2020-01-30,"github.com",0
"108",2020-01-30,"pw.edu.pl",0
"109",2020-01-30,"youtube.com",10
"110",2020-01-30,"google.com",67
"111",2020-01-30,"facebook.com",0
"112",2020-01-30,"instagram.com",0
"113",2020-01-31,"stackoverflow.com",0
"114",2020-01-31,"wikipedia.org",0
"115",2020-01-31,"github.com",0
"116",2020-01-31,"pw.edu.pl",0
"117",2020-01-31,"youtube.com",31
"118",2020-01-31,"google.com",22
"119",2020-01-31,"facebook.com",0
"120",2020-01-31,"instagram.com",0
"121",2020-02-01,"stackoverflow.com",0
"122",2020-02-01,"wikipedia.org",0
"123",2020-02-01,"github.com",0
"124",2020-02-01,"pw.edu.pl",1
"125",2020-02-01,"youtube.com",0
"126",2020-02-01,"google.com",14
"127",2020-02-01,"facebook.com",2
"128",2020-02-01,"instagram.com",0
"129",2020-02-02,"stackoverflow.com",0
"130",2020-02-02,"wikipedia.org",1
"131",2020-02-02,"github.com",0
"132",2020-02-02,"pw.edu.pl",0
"133",2020-02-02,"youtube.com",8
"134",2020-02-02,"google.com",39
"135",2020-02-02,"facebook.com",0
"136",2020-02-02,"instagram.com",0
"137",2020-02-03,"stackoverflow.com",0
"138",2020-02-03,"wikipedia.org",0
"139",2020-02-03,"github.com",0
"140",2020-02-03,"pw.edu.pl",0
"141",2020-02-03,"youtube.com",4
"142",2020-02-03,"google.com",92
"143",2020-02-03,"facebook.com",5
"144",2020-02-03,"instagram.com",0
"145",2020-02-04,"stackoverflow.com",0
"146",2020-02-04,"wikipedia.org",3
"147",2020-02-04,"github.com",0
"148",2020-02-04,"pw.edu.pl",0
"149",2020-02-04,"youtube.com",28
"150",2020-02-04,"google.com",60
"151",2020-02-04,"facebook.com",5
"152",2020-02-04,"instagram.com",0
"153",2020-02-05,"stackoverflow.com",0
"154",2020-02-05,"wikipedia.org",1
"155",2020-02-05,"github.com",0
"156",2020-02-05,"pw.edu.pl",0
"157",2020-02-05,"youtube.com",10
"158",2020-02-05,"google.com",113
"159",2020-02-05,"facebook.com",0
"160",2020-02-05,"instagram.com",0
"161",2020-02-06,"stackoverflow.com",0
"162",2020-02-06,"wikipedia.org",1
"163",2020-02-06,"github.com",0
"164",2020-02-06,"pw.edu.pl",0
"165",2020-02-06,"youtube.com",1
"166",2020-02-06,"google.com",105
"167",2020-02-06,"facebook.com",13
"168",2020-02-06,"instagram.com",0
"169",2020-02-07,"stackoverflow.com",0
"170",2020-02-07,"wikipedia.org",0
"171",2020-02-07,"github.com",0
"172",2020-02-07,"pw.edu.pl",0
"173",2020-02-07,"youtube.com",0
"174",2020-02-07,"google.com",23
"175",2020-02-07,"facebook.com",0
"176",2020-02-07,"instagram.com",0
"177",2020-02-08,"stackoverflow.com",0
"178",2020-02-08,"wikipedia.org",0
"179",2020-02-08,"github.com",0
"180",2020-02-08,"pw.edu.pl",0
"181",2020-02-08,"youtube.com",9
"182",2020-02-08,"google.com",25
"183",2020-02-08,"facebook.com",0
"184",2020-02-08,"instagram.com",0
"185",2020-02-09,"stackoverflow.com",0
"186",2020-02-09,"wikipedia.org",1
"187",2020-02-09,"github.com",0
"188",2020-02-09,"pw.edu.pl",0
"189",2020-02-09,"youtube.com",15
"190",2020-02-09,"google.com",42
"191",2020-02-09,"facebook.com",9
"192",2020-02-09,"instagram.com",0
"193",2020-02-10,"stackoverflow.com",0
"194",2020-02-10,"wikipedia.org",0
"195",2020-02-10,"github.com",0
"196",2020-02-10,"pw.edu.pl",31
"197",2020-02-10,"youtube.com",65
"198",2020-02-10,"google.com",68
"199",2020-02-10,"facebook.com",0
"200",2020-02-10,"instagram.com",0
"201",2020-02-11,"stackoverflow.com",0
"202",2020-02-11,"wikipedia.org",0
"203",2020-02-11,"github.com",0
"204",2020-02-11,"pw.edu.pl",17
"205",2020-02-11,"youtube.com",0
"206",2020-02-11,"google.com",17
"207",2020-02-11,"facebook.com",6
"208",2020-02-11,"instagram.com",0
"209",2020-02-12,"stackoverflow.com",0
"210",2020-02-12,"wikipedia.org",0
"211",2020-02-12,"github.com",0
"212",2020-02-12,"pw.edu.pl",9
"213",2020-02-12,"youtube.com",0
"214",2020-02-12,"google.com",20
"215",2020-02-12,"facebook.com",2
"216",2020-02-12,"instagram.com",0
"217",2020-02-13,"stackoverflow.com",0
"218",2020-02-13,"wikipedia.org",2
"219",2020-02-13,"github.com",0
"220",2020-02-13,"pw.edu.pl",15
"221",2020-02-13,"youtube.com",0
"222",2020-02-13,"google.com",197
"223",2020-02-13,"facebook.com",18
"224",2020-02-13,"instagram.com",0
"225",2020-02-14,"stackoverflow.com",0
"226",2020-02-14,"wikipedia.org",0
"227",2020-02-14,"github.com",0
"228",2020-02-14,"pw.edu.pl",0
"229",2020-02-14,"youtube.com",0
"230",2020-02-14,"google.com",21
"231",2020-02-14,"facebook.com",0
"232",2020-02-14,"instagram.com",0
"233",2020-02-15,"stackoverflow.com",0
"234",2020-02-15,"wikipedia.org",0
"235",2020-02-15,"github.com",0
"236",2020-02-15,"pw.edu.pl",0
"237",2020-02-15,"youtube.com",0
"238",2020-02-15,"google.com",10
"239",2020-02-15,"facebook.com",0
"240",2020-02-15,"instagram.com",0
"241",2020-02-16,"stackoverflow.com",0
"242",2020-02-16,"wikipedia.org",0
"243",2020-02-16,"github.com",0
"244",2020-02-16,"pw.edu.pl",0
"245",2020-02-16,"youtube.com",0
"246",2020-02-16,"google.com",12
"247",2020-02-16,"facebook.com",0
"248",2020-02-16,"instagram.com",0
"249",2020-02-17,"stackoverflow.com",0
"250",2020-02-17,"wikipedia.org",0
"251",2020-02-17,"github.com",0
"252",2020-02-17,"pw.edu.pl",4
"253",2020-02-17,"youtube.com",0
"254",2020-02-17,"google.com",33
"255",2020-02-17,"facebook.com",0
"256",2020-02-17,"instagram.com",0
"257",2020-02-18,"stackoverflow.com",0
"258",2020-02-18,"wikipedia.org",1
"259",2020-02-18,"github.com",0
"260",2020-02-18,"pw.edu.pl",0
"261",2020-02-18,"youtube.com",0
"262",2020-02-18,"google.com",16
"263",2020-02-18,"facebook.com",0
"264",2020-02-18,"instagram.com",0
"265",2020-02-19,"stackoverflow.com",0
"266",2020-02-19,"wikipedia.org",1
"267",2020-02-19,"github.com",0
"268",2020-02-19,"pw.edu.pl",21
"269",2020-02-19,"youtube.com",1
"270",2020-02-19,"google.com",24
"271",2020-02-19,"facebook.com",0
"272",2020-02-19,"instagram.com",0
"273",2020-02-20,"stackoverflow.com",0
"274",2020-02-20,"wikipedia.org",0
"275",2020-02-20,"github.com",0
"276",2020-02-20,"pw.edu.pl",29
"277",2020-02-20,"youtube.com",0
"278",2020-02-20,"google.com",26
"279",2020-02-20,"facebook.com",0
"280",2020-02-20,"instagram.com",0
"281",2020-02-21,"stackoverflow.com",0
"282",2020-02-21,"wikipedia.org",0
"283",2020-02-21,"github.com",0
"284",2020-02-21,"pw.edu.pl",0
"285",2020-02-21,"youtube.com",3
"286",2020-02-21,"google.com",12
"287",2020-02-21,"facebook.com",0
"288",2020-02-21,"instagram.com",0
"289",2020-02-22,"stackoverflow.com",0
"290",2020-02-22,"wikipedia.org",0
"291",2020-02-22,"github.com",0
"292",2020-02-22,"pw.edu.pl",8
"293",2020-02-22,"youtube.com",0
"294",2020-02-22,"google.com",13
"295",2020-02-22,"facebook.com",0
"296",2020-02-22,"instagram.com",0
"297",2020-02-23,"stackoverflow.com",0
"298",2020-02-23,"wikipedia.org",0
"299",2020-02-23,"github.com",0
"300",2020-02-23,"pw.edu.pl",0
"301",2020-02-23,"youtube.com",0
"302",2020-02-23,"google.com",24
"303",2020-02-23,"facebook.com",0
"304",2020-02-23,"instagram.com",0
"305",2020-02-24,"stackoverflow.com",0
"306",2020-02-24,"wikipedia.org",0
"307",2020-02-24,"github.com",0
"308",2020-02-24,"pw.edu.pl",4
"309",2020-02-24,"youtube.com",11
"310",2020-02-24,"google.com",9
"311",2020-02-24,"facebook.com",0
"312",2020-02-24,"instagram.com",0
"313",2020-02-25,"stackoverflow.com",0
"314",2020-02-25,"wikipedia.org",0
"315",2020-02-25,"github.com",0
"316",2020-02-25,"pw.edu.pl",0
"317",2020-02-25,"youtube.com",5
"318",2020-02-25,"google.com",32
"319",2020-02-25,"facebook.com",10
"320",2020-02-25,"instagram.com",0
"321",2020-02-26,"stackoverflow.com",0
"322",2020-02-26,"wikipedia.org",0
"323",2020-02-26,"github.com",0
"324",2020-02-26,"pw.edu.pl",0
"325",2020-02-26,"youtube.com",1
"326",2020-02-26,"google.com",12
"327",2020-02-26,"facebook.com",0
"328",2020-02-26,"instagram.com",0
"329",2020-02-27,"stackoverflow.com",0
"330",2020-02-27,"wikipedia.org",1
"331",2020-02-27,"github.com",0
"332",2020-02-27,"pw.edu.pl",6
"333",2020-02-27,"youtube.com",0
"334",2020-02-27,"google.com",25
"335",2020-02-27,"facebook.com",0
"336",2020-02-27,"instagram.com",0
"337",2020-02-28,"stackoverflow.com",0
"338",2020-02-28,"wikipedia.org",0
"339",2020-02-28,"github.com",0
"340",2020-02-28,"pw.edu.pl",0
"341",2020-02-28,"youtube.com",0
"342",2020-02-28,"google.com",2
"343",2020-02-28,"facebook.com",0
"344",2020-02-28,"instagram.com",0
"345",2020-02-29,"stackoverflow.com",0
"346",2020-02-29,"wikipedia.org",0
"347",2020-02-29,"github.com",0
"348",2020-02-29,"pw.edu.pl",2
"349",2020-02-29,"youtube.com",4
"350",2020-02-29,"google.com",36
"351",2020-02-29,"facebook.com",0
"352",2020-02-29,"instagram.com",0
"353",2020-03-29,"stackoverflow.com",0
"354",2020-03-29,"wikipedia.org",0
"355",2020-03-29,"github.com",0
"356",2020-03-29,"pw.edu.pl",0
"357",2020-03-29,"youtube.com",28
"358",2020-03-29,"google.com",74
"359",2020-03-29,"facebook.com",0
"360",2020-03-29,"instagram.com",0
"361",2020-03-30,"stackoverflow.com",0
"362",2020-03-30,"wikipedia.org",0
"363",2020-03-30,"github.com",0
"364",2020-03-30,"pw.edu.pl",0
"365",2020-03-30,"youtube.com",31
"366",2020-03-30,"google.com",68
"367",2020-03-30,"facebook.com",0
"368",2020-03-30,"instagram.com",0
"369",2020-03-31,"stackoverflow.com",0
"370",2020-03-31,"wikipedia.org",2
"371",2020-03-31,"github.com",0
"372",2020-03-31,"pw.edu.pl",0
"373",2020-03-31,"youtube.com",4
"374",2020-03-31,"google.com",24
"375",2020-03-31,"facebook.com",13
"376",2020-03-31,"instagram.com",0
"377",2020-04-01,"stackoverflow.com",0
"378",2020-04-01,"wikipedia.org",0
"379",2020-04-01,"github.com",0
"380",2020-04-01,"pw.edu.pl",0
"381",2020-04-01,"youtube.com",6
"382",2020-04-01,"google.com",193
"383",2020-04-01,"facebook.com",0
"384",2020-04-01,"instagram.com",0
"385",2020-04-02,"stackoverflow.com",0
"386",2020-04-02,"wikipedia.org",0
"387",2020-04-02,"github.com",0
"388",2020-04-02,"pw.edu.pl",0
"389",2020-04-02,"youtube.com",0
"390",2020-04-02,"google.com",41
"391",2020-04-02,"facebook.com",0
"392",2020-04-02,"instagram.com",0
"393",2020-04-03,"stackoverflow.com",0
"394",2020-04-03,"wikipedia.org",1
"395",2020-04-03,"github.com",0
"396",2020-04-03,"pw.edu.pl",0
"397",2020-04-03,"youtube.com",8
"398",2020-04-03,"google.com",41
"399",2020-04-03,"facebook.com",0
"400",2020-04-03,"instagram.com",0
"401",2020-04-04,"stackoverflow.com",0
"402",2020-04-04,"wikipedia.org",0
"403",2020-04-04,"github.com",0
"404",2020-04-04,"pw.edu.pl",0
"405",2020-04-04,"youtube.com",1
"406",2020-04-04,"google.com",123
"407",2020-04-04,"facebook.com",0
"408",2020-04-04,"instagram.com",0
"409",2020-04-05,"stackoverflow.com",0
"410",2020-04-05,"wikipedia.org",0
"411",2020-04-05,"github.com",0
"412",2020-04-05,"pw.edu.pl",0
"413",2020-04-05,"youtube.com",0
"414",2020-04-05,"google.com",14
"415",2020-04-05,"facebook.com",0
"416",2020-04-05,"instagram.com",0
"417",2020-04-06,"stackoverflow.com",0
"418",2020-04-06,"wikipedia.org",0
"419",2020-04-06,"github.com",0
"420",2020-04-06,"pw.edu.pl",0
"421",2020-04-06,"youtube.com",7
"422",2020-04-06,"google.com",11
"423",2020-04-06,"facebook.com",0
"424",2020-04-06,"instagram.com",0
"425",2020-04-07,"stackoverflow.com",0
"426",2020-04-07,"wikipedia.org",0
"427",2020-04-07,"github.com",0
"428",2020-04-07,"pw.edu.pl",0
"429",2020-04-07,"youtube.com",4
"430",2020-04-07,"google.com",33
"431",2020-04-07,"facebook.com",0
"432",2020-04-07,"instagram.com",0
"433",2020-04-08,"stackoverflow.com",0
"434",2020-04-08,"wikipedia.org",0
"435",2020-04-08,"github.com",0
"436",2020-04-08,"pw.edu.pl",0
"437",2020-04-08,"youtube.com",0
"438",2020-04-08,"google.com",28
"439",2020-04-08,"facebook.com",0
"440",2020-04-08,"instagram.com",0
"441",2020-04-09,"stackoverflow.com",0
"442",2020-04-09,"wikipedia.org",0
"443",2020-04-09,"github.com",0
"444",2020-04-09,"pw.edu.pl",0
"445",2020-04-09,"youtube.com",0
"446",2020-04-09,"google.com",14
"447",2020-04-09,"facebook.com",0
"448",2020-04-09,"instagram.com",0
"449",2020-04-10,"stackoverflow.com",0
"450",2020-04-10,"wikipedia.org",1
"451",2020-04-10,"github.com",0
"452",2020-04-10,"pw.edu.pl",0
"453",2020-04-10,"youtube.com",10
"454",2020-04-10,"google.com",36
"455",2020-04-10,"facebook.com",6
"456",2020-04-10,"instagram.com",0
"457",2020-04-11,"stackoverflow.com",0
"458",2020-04-11,"wikipedia.org",2
"459",2020-04-11,"github.com",0
"460",2020-04-11,"pw.edu.pl",0
"461",2020-04-11,"youtube.com",26
"462",2020-04-11,"google.com",90
"463",2020-04-11,"facebook.com",21
"464",2020-04-11,"instagram.com",0
"465",2020-04-12,"stackoverflow.com",0
"466",2020-04-12,"wikipedia.org",0
"467",2020-04-12,"github.com",0
"468",2020-04-12,"pw.edu.pl",0
"469",2020-04-12,"youtube.com",6
"470",2020-04-12,"google.com",30
"471",2020-04-12,"facebook.com",13
"472",2020-04-12,"instagram.com",0
"473",2020-04-13,"stackoverflow.com",0
"474",2020-04-13,"wikipedia.org",0
"475",2020-04-13,"github.com",0
"476",2020-04-13,"pw.edu.pl",0
"477",2020-04-13,"youtube.com",0
"478",2020-04-13,"google.com",30
"479",2020-04-13,"facebook.com",0
"480",2020-04-13,"instagram.com",0
"481",2020-04-14,"stackoverflow.com",0
"482",2020-04-14,"wikipedia.org",0
"483",2020-04-14,"github.com",0
"484",2020-04-14,"pw.edu.pl",0
"485",2020-04-14,"youtube.com",0
"486",2020-04-14,"google.com",35
"487",2020-04-14,"facebook.com",0
"488",2020-04-14,"instagram.com",0
"489",2020-04-15,"stackoverflow.com",0
"490",2020-04-15,"wikipedia.org",1
"491",2020-04-15,"github.com",0
"492",2020-04-15,"pw.edu.pl",0
"493",2020-04-15,"youtube.com",34
"494",2020-04-15,"google.com",35
"495",2020-04-15,"facebook.com",15
"496",2020-04-15,"instagram.com",0
"497",2020-04-16,"stackoverflow.com",0
"498",2020-04-16,"wikipedia.org",0
"499",2020-04-16,"github.com",0
"500",2020-04-16,"pw.edu.pl",13
"501",2020-04-16,"youtube.com",4
"502",2020-04-16,"google.com",18
"503",2020-04-16,"facebook.com",0
"504",2020-04-16,"instagram.com",0
"505",2020-04-17,"stackoverflow.com",0
"506",2020-04-17,"wikipedia.org",0
"507",2020-04-17,"github.com",0
"508",2020-04-17,"pw.edu.pl",0
"509",2020-04-17,"youtube.com",25
"510",2020-04-17,"google.com",77
"511",2020-04-17,"facebook.com",0
"512",2020-04-17,"instagram.com",0
"513",2020-04-18,"stackoverflow.com",0
"514",2020-04-18,"wikipedia.org",4
"515",2020-04-18,"github.com",0
"516",2020-04-18,"pw.edu.pl",0
"517",2020-04-18,"youtube.com",0
"518",2020-04-18,"google.com",32
"519",2020-04-18,"facebook.com",0
"520",2020-04-18,"instagram.com",0
"521",2020-04-19,"stackoverflow.com",0
"522",2020-04-19,"wikipedia.org",0
"523",2020-04-19,"github.com",0
"524",2020-04-19,"pw.edu.pl",0
"525",2020-04-19,"youtube.com",0
"526",2020-04-19,"google.com",25
"527",2020-04-19,"facebook.com",0
"528",2020-04-19,"instagram.com",0
"529",2020-04-20,"stackoverflow.com",0
"530",2020-04-20,"wikipedia.org",0
"531",2020-04-20,"github.com",0
"532",2020-04-20,"pw.edu.pl",0
"533",2020-04-20,"youtube.com",38
"534",2020-04-20,"google.com",60
"535",2020-04-20,"facebook.com",33
"536",2020-04-20,"instagram.com",0
"537",2020-04-21,"stackoverflow.com",0
"538",2020-04-21,"wikipedia.org",0
"539",2020-04-21,"github.com",0
"540",2020-04-21,"pw.edu.pl",20
"541",2020-04-21,"youtube.com",0
"542",2020-04-21,"google.com",14
"543",2020-04-21,"facebook.com",7
"544",2020-04-21,"instagram.com",0
"545",2020-04-22,"stackoverflow.com",0
"546",2020-04-22,"wikipedia.org",0
"547",2020-04-22,"github.com",0
"548",2020-04-22,"pw.edu.pl",0
"549",2020-04-22,"youtube.com",3
"550",2020-04-22,"google.com",13
"551",2020-04-22,"facebook.com",0
"552",2020-04-22,"instagram.com",0
"553",2020-04-23,"stackoverflow.com",0
"554",2020-04-23,"wikipedia.org",0
"555",2020-04-23,"github.com",0
"556",2020-04-23,"pw.edu.pl",0
"557",2020-04-23,"youtube.com",0
"558",2020-04-23,"google.com",39
"559",2020-04-23,"facebook.com",0
"560",2020-04-23,"instagram.com",0
"561",2020-04-24,"stackoverflow.com",0
"562",2020-04-24,"wikipedia.org",0
"563",2020-04-24,"github.com",1
"564",2020-04-24,"pw.edu.pl",0
"565",2020-04-24,"youtube.com",3
"566",2020-04-24,"google.com",34
"567",2020-04-24,"facebook.com",0
"568",2020-04-24,"instagram.com",0
"569",2020-04-25,"stackoverflow.com",0
"570",2020-04-25,"wikipedia.org",4
"571",2020-04-25,"github.com",0
"572",2020-04-25,"pw.edu.pl",0
"573",2020-04-25,"youtube.com",35
"574",2020-04-25,"google.com",60
"575",2020-04-25,"facebook.com",9
"576",2020-04-25,"instagram.com",0
"577",2020-04-26,"stackoverflow.com",0
"578",2020-04-26,"wikipedia.org",0
"579",2020-04-26,"github.com",0
"580",2020-04-26,"pw.edu.pl",0
"581",2020-04-26,"youtube.com",4
"582",2020-04-26,"google.com",149
"583",2020-04-26,"facebook.com",0
"584",2020-04-26,"instagram.com",0
"585",2020-04-27,"stackoverflow.com",0
"586",2020-04-27,"wikipedia.org",0
"587",2020-04-27,"github.com",0
"588",2020-04-27,"pw.edu.pl",0
"589",2020-04-27,"youtube.com",17
"590",2020-04-27,"google.com",83
"591",2020-04-27,"facebook.com",10
"592",2020-04-27,"instagram.com",0
"593",2020-04-28,"stackoverflow.com",3
"594",2020-04-28,"wikipedia.org",1
"595",2020-04-28,"github.com",0
"596",2020-04-28,"pw.edu.pl",0
"597",2020-04-28,"youtube.com",10
"598",2020-04-28,"google.com",174
"599",2020-04-28,"facebook.com",12
"600",2020-04-28,"instagram.com",0
"601",2020-04-29,"stackoverflow.com",0
"602",2020-04-29,"wikipedia.org",2
"603",2020-04-29,"github.com",0
"604",2020-04-29,"pw.edu.pl",0
"605",2020-04-29,"youtube.com",14
"606",2020-04-29,"google.com",139
"607",2020-04-29,"facebook.com",0
"608",2020-04-29,"instagram.com",0
"609",2020-04-30,"stackoverflow.com",1
"610",2020-04-30,"wikipedia.org",2
"611",2020-04-30,"github.com",0
"612",2020-04-30,"pw.edu.pl",0
"613",2020-04-30,"youtube.com",1
"614",2020-04-30,"google.com",95
"615",2020-04-30,"facebook.com",0
"616",2020-04-30,"instagram.com",0
"617",2020-05-01,"stackoverflow.com",0
"618",2020-05-01,"wikipedia.org",0
"619",2020-05-01,"github.com",0
"620",2020-05-01,"pw.edu.pl",12
"621",2020-05-01,"youtube.com",4
"622",2020-05-01,"google.com",74
"623",2020-05-01,"facebook.com",0
"624",2020-05-01,"instagram.com",0
"625",2020-05-02,"stackoverflow.com",0
"626",2020-05-02,"wikipedia.org",0
"627",2020-05-02,"github.com",0
"628",2020-05-02,"pw.edu.pl",0
"629",2020-05-02,"youtube.com",6
"630",2020-05-02,"google.com",61
"631",2020-05-02,"facebook.com",19
"632",2020-05-02,"instagram.com",0
"633",2020-05-03,"stackoverflow.com",0
"634",2020-05-03,"wikipedia.org",1
"635",2020-05-03,"github.com",0
"636",2020-05-03,"pw.edu.pl",0
"637",2020-05-03,"youtube.com",46
"638",2020-05-03,"google.com",62
"639",2020-05-03,"facebook.com",12
"640",2020-05-03,"instagram.com",0
"641",2020-05-04,"stackoverflow.com",0
"642",2020-05-04,"wikipedia.org",0
"643",2020-05-04,"github.com",0
"644",2020-05-04,"pw.edu.pl",5
"645",2020-05-04,"youtube.com",4
"646",2020-05-04,"google.com",32
"647",2020-05-04,"facebook.com",14
"648",2020-05-04,"instagram.com",0
"649",2020-05-05,"stackoverflow.com",0
"650",2020-05-05,"wikipedia.org",1
"651",2020-05-05,"github.com",0
"652",2020-05-05,"pw.edu.pl",7
"653",2020-05-05,"youtube.com",0
"654",2020-05-05,"google.com",132
"655",2020-05-05,"facebook.com",9
"656",2020-05-05,"instagram.com",0
"657",2020-05-06,"stackoverflow.com",0
"658",2020-05-06,"wikipedia.org",0
"659",2020-05-06,"github.com",0
"660",2020-05-06,"pw.edu.pl",0
"661",2020-05-06,"youtube.com",20
"662",2020-05-06,"google.com",117
"663",2020-05-06,"facebook.com",44
"664",2020-05-06,"instagram.com",0
"665",2020-05-07,"stackoverflow.com",0
"666",2020-05-07,"wikipedia.org",0
"667",2020-05-07,"github.com",0
"668",2020-05-07,"pw.edu.pl",0
"669",2020-05-07,"youtube.com",18
"670",2020-05-07,"google.com",76
"671",2020-05-07,"facebook.com",10
"672",2020-05-07,"instagram.com",0
"673",2020-05-08,"stackoverflow.com",1
"674",2020-05-08,"wikipedia.org",0
"675",2020-05-08,"github.com",0
"676",2020-05-08,"pw.edu.pl",0
"677",2020-05-08,"youtube.com",27
"678",2020-05-08,"google.com",63
"679",2020-05-08,"facebook.com",0
"680",2020-05-08,"instagram.com",1
"681",2020-05-09,"stackoverflow.com",1
"682",2020-05-09,"wikipedia.org",0
"683",2020-05-09,"github.com",0
"684",2020-05-09,"pw.edu.pl",0
"685",2020-05-09,"youtube.com",20
"686",2020-05-09,"google.com",57
"687",2020-05-09,"facebook.com",0
"688",2020-05-09,"instagram.com",0
"689",2020-05-10,"stackoverflow.com",0
"690",2020-05-10,"wikipedia.org",1
"691",2020-05-10,"github.com",0
"692",2020-05-10,"pw.edu.pl",1
"693",2020-05-10,"youtube.com",2
"694",2020-05-10,"google.com",76
"695",2020-05-10,"facebook.com",0
"696",2020-05-10,"instagram.com",0
"697",2020-05-11,"stackoverflow.com",0
"698",2020-05-11,"wikipedia.org",12
"699",2020-05-11,"github.com",0
"700",2020-05-11,"pw.edu.pl",4
"701",2020-05-11,"youtube.com",5
"702",2020-05-11,"google.com",134
"703",2020-05-11,"facebook.com",0
"704",2020-05-11,"instagram.com",0
"705",2020-05-12,"stackoverflow.com",0
"706",2020-05-12,"wikipedia.org",0
"707",2020-05-12,"github.com",0
"708",2020-05-12,"pw.edu.pl",0
"709",2020-05-12,"youtube.com",11
"710",2020-05-12,"google.com",41
"711",2020-05-12,"facebook.com",0
"712",2020-05-12,"instagram.com",0
"713",2020-05-13,"stackoverflow.com",0
"714",2020-05-13,"wikipedia.org",0
"715",2020-05-13,"github.com",0
"716",2020-05-13,"pw.edu.pl",11
"717",2020-05-13,"youtube.com",13
"718",2020-05-13,"google.com",61
"719",2020-05-13,"facebook.com",0
"720",2020-05-13,"instagram.com",0
"721",2020-05-14,"stackoverflow.com",0
"722",2020-05-14,"wikipedia.org",0
"723",2020-05-14,"github.com",0
"724",2020-05-14,"pw.edu.pl",0
"725",2020-05-14,"youtube.com",12
"726",2020-05-14,"google.com",38
"727",2020-05-14,"facebook.com",0
"728",2020-05-14,"instagram.com",0
"729",2020-05-15,"stackoverflow.com",0
"730",2020-05-15,"wikipedia.org",0
"731",2020-05-15,"github.com",0
"732",2020-05-15,"pw.edu.pl",5
"733",2020-05-15,"youtube.com",3
"734",2020-05-15,"google.com",63
"735",2020-05-15,"facebook.com",0
"736",2020-05-15,"instagram.com",0
"737",2020-05-16,"stackoverflow.com",0
"738",2020-05-16,"wikipedia.org",0
"739",2020-05-16,"github.com",0
"740",2020-05-16,"pw.edu.pl",0
"741",2020-05-16,"youtube.com",13
"742",2020-05-16,"google.com",42
"743",2020-05-16,"facebook.com",22
"744",2020-05-16,"instagram.com",0
"745",2020-05-17,"stackoverflow.com",0
"746",2020-05-17,"wikipedia.org",0
"747",2020-05-17,"github.com",0
"748",2020-05-17,"pw.edu.pl",0
"749",2020-05-17,"youtube.com",0
"750",2020-05-17,"google.com",34
"751",2020-05-17,"facebook.com",0
"752",2020-05-17,"instagram.com",0
"753",2020-05-18,"stackoverflow.com",0
"754",2020-05-18,"wikipedia.org",1
"755",2020-05-18,"github.com",0
"756",2020-05-18,"pw.edu.pl",12
"757",2020-05-18,"youtube.com",17
"758",2020-05-18,"google.com",91
"759",2020-05-18,"facebook.com",12
"760",2020-05-18,"instagram.com",0
"761",2020-05-19,"stackoverflow.com",0
"762",2020-05-19,"wikipedia.org",3
"763",2020-05-19,"github.com",0
"764",2020-05-19,"pw.edu.pl",74
"765",2020-05-19,"youtube.com",6
"766",2020-05-19,"google.com",70
"767",2020-05-19,"facebook.com",2
"768",2020-05-19,"instagram.com",0
"769",2020-05-20,"stackoverflow.com",0
"770",2020-05-20,"wikipedia.org",0
"771",2020-05-20,"github.com",0
"772",2020-05-20,"pw.edu.pl",9
"773",2020-05-20,"youtube.com",3
"774",2020-05-20,"google.com",61
"775",2020-05-20,"facebook.com",4
"776",2020-05-20,"instagram.com",0
"777",2020-05-21,"stackoverflow.com",0
"778",2020-05-21,"wikipedia.org",0
"779",2020-05-21,"github.com",0
"780",2020-05-21,"pw.edu.pl",0
"781",2020-05-21,"youtube.com",3
"782",2020-05-21,"google.com",75
"783",2020-05-21,"facebook.com",4
"784",2020-05-21,"instagram.com",0
"785",2020-05-22,"stackoverflow.com",0
"786",2020-05-22,"wikipedia.org",0
"787",2020-05-22,"github.com",0
"788",2020-05-22,"pw.edu.pl",0
"789",2020-05-22,"youtube.com",4
"790",2020-05-22,"google.com",15
"791",2020-05-22,"facebook.com",9
"792",2020-05-22,"instagram.com",0
"793",2020-05-23,"stackoverflow.com",2
"794",2020-05-23,"wikipedia.org",0
"795",2020-05-23,"github.com",0
"796",2020-05-23,"pw.edu.pl",0
"797",2020-05-23,"youtube.com",18
"798",2020-05-23,"google.com",36
"799",2020-05-23,"facebook.com",0
"800",2020-05-23,"instagram.com",0
"801",2020-05-24,"stackoverflow.com",0
"802",2020-05-24,"wikipedia.org",0
"803",2020-05-24,"github.com",0
"804",2020-05-24,"pw.edu.pl",1
"805",2020-05-24,"youtube.com",3
"806",2020-05-24,"google.com",44
"807",2020-05-24,"facebook.com",0
"808",2020-05-24,"instagram.com",0
"809",2020-05-25,"stackoverflow.com",0
"810",2020-05-25,"wikipedia.org",0
"811",2020-05-25,"github.com",0
"812",2020-05-25,"pw.edu.pl",0
"813",2020-05-25,"youtube.com",21
"814",2020-05-25,"google.com",21
"815",2020-05-25,"facebook.com",7
"816",2020-05-25,"instagram.com",0
"817",2020-05-26,"stackoverflow.com",0
"818",2020-05-26,"wikipedia.org",1
"819",2020-05-26,"github.com",0
"820",2020-05-26,"pw.edu.pl",0
"821",2020-05-26,"youtube.com",0
"822",2020-05-26,"google.com",70
"823",2020-05-26,"facebook.com",0
"824",2020-05-26,"instagram.com",0
"825",2020-05-27,"stackoverflow.com",0
"826",2020-05-27,"wikipedia.org",0
"827",2020-05-27,"github.com",0
"828",2020-05-27,"pw.edu.pl",0
"829",2020-05-27,"youtube.com",0
"830",2020-05-27,"google.com",6
"831",2020-05-27,"facebook.com",0
"832",2020-05-27,"instagram.com",0
"833",2020-05-28,"stackoverflow.com",0
"834",2020-05-28,"wikipedia.org",0
"835",2020-05-28,"github.com",0
"836",2020-05-28,"pw.edu.pl",0
"837",2020-05-28,"youtube.com",0
"838",2020-05-28,"google.com",9
"839",2020-05-28,"facebook.com",2
"840",2020-05-28,"instagram.com",0
"841",2020-05-29,"stackoverflow.com",0
"842",2020-05-29,"wikipedia.org",1
"843",2020-05-29,"github.com",0
"844",2020-05-29,"pw.edu.pl",2
"845",2020-05-29,"youtube.com",13
"846",2020-05-29,"google.com",11
"847",2020-05-29,"facebook.com",0
"848",2020-05-29,"instagram.com",0
"849",2020-05-30,"stackoverflow.com",0
"850",2020-05-30,"wikipedia.org",2
"851",2020-05-30,"github.com",0
"852",2020-05-30,"pw.edu.pl",16
"853",2020-05-30,"youtube.com",4
"854",2020-05-30,"google.com",51
"855",2020-05-30,"facebook.com",9
"856",2020-05-30,"instagram.com",0
"857",2020-05-31,"stackoverflow.com",0
"858",2020-05-31,"wikipedia.org",4
"859",2020-05-31,"github.com",0
"860",2020-05-31,"pw.edu.pl",0
"861",2020-05-31,"youtube.com",15
"862",2020-05-31,"google.com",59
"863",2020-05-31,"facebook.com",9
"864",2020-05-31,"instagram.com",0
"865",2020-06-01,"stackoverflow.com",0
"866",2020-06-01,"wikipedia.org",3
"867",2020-06-01,"github.com",0
"868",2020-06-01,"pw.edu.pl",1
"869",2020-06-01,"youtube.com",21
"870",2020-06-01,"google.com",55
"871",2020-06-01,"facebook.com",0
"872",2020-06-01,"instagram.com",0
"873",2020-06-02,"stackoverflow.com",0
"874",2020-06-02,"wikipedia.org",5
"875",2020-06-02,"github.com",0
"876",2020-06-02,"pw.edu.pl",2
"877",2020-06-02,"youtube.com",0
"878",2020-06-02,"google.com",50
"879",2020-06-02,"facebook.com",2
"880",2020-06-02,"instagram.com",0
"881",2020-06-03,"stackoverflow.com",0
"882",2020-06-03,"wikipedia.org",3
"883",2020-06-03,"github.com",0
"884",2020-06-03,"pw.edu.pl",1
"885",2020-06-03,"youtube.com",0
"886",2020-06-03,"google.com",43
"887",2020-06-03,"facebook.com",0
"888",2020-06-03,"instagram.com",0
"889",2020-06-04,"stackoverflow.com",0
"890",2020-06-04,"wikipedia.org",9
"891",2020-06-04,"github.com",0
"892",2020-06-04,"pw.edu.pl",5
"893",2020-06-04,"youtube.com",13
"894",2020-06-04,"google.com",31
"895",2020-06-04,"facebook.com",4
"896",2020-06-04,"instagram.com",0
"897",2020-06-05,"stackoverflow.com",1
"898",2020-06-05,"wikipedia.org",3
"899",2020-06-05,"github.com",0
"900",2020-06-05,"pw.edu.pl",13
"901",2020-06-05,"youtube.com",29
"902",2020-06-05,"google.com",36
"903",2020-06-05,"facebook.com",15
"904",2020-06-05,"instagram.com",0
"905",2020-06-06,"stackoverflow.com",2
"906",2020-06-06,"wikipedia.org",0
"907",2020-06-06,"github.com",0
"908",2020-06-06,"pw.edu.pl",0
"909",2020-06-06,"youtube.com",22
"910",2020-06-06,"google.com",22
"911",2020-06-06,"facebook.com",4
"912",2020-06-06,"instagram.com",0
"913",2020-06-07,"stackoverflow.com",2
"914",2020-06-07,"wikipedia.org",0
"915",2020-06-07,"github.com",0
"916",2020-06-07,"pw.edu.pl",10
"917",2020-06-07,"youtube.com",0
"918",2020-06-07,"google.com",35
"919",2020-06-07,"facebook.com",0
"920",2020-06-07,"instagram.com",0
"921",2020-06-08,"stackoverflow.com",0
"922",2020-06-08,"wikipedia.org",1
"923",2020-06-08,"github.com",0
"924",2020-06-08,"pw.edu.pl",41
"925",2020-06-08,"youtube.com",40
"926",2020-06-08,"google.com",52
"927",2020-06-08,"facebook.com",18
"928",2020-06-08,"instagram.com",0
"929",2020-06-09,"stackoverflow.com",0
"930",2020-06-09,"wikipedia.org",2
"931",2020-06-09,"github.com",0
"932",2020-06-09,"pw.edu.pl",11
"933",2020-06-09,"youtube.com",2
"934",2020-06-09,"google.com",42
"935",2020-06-09,"facebook.com",0
"936",2020-06-09,"instagram.com",0
"937",2020-06-10,"stackoverflow.com",0
"938",2020-06-10,"wikipedia.org",0
"939",2020-06-10,"github.com",0
"940",2020-06-10,"pw.edu.pl",41
"941",2020-06-10,"youtube.com",5
"942",2020-06-10,"google.com",20
"943",2020-06-10,"facebook.com",3
"944",2020-06-10,"instagram.com",0
"945",2020-06-11,"stackoverflow.com",0
"946",2020-06-11,"wikipedia.org",0
"947",2020-06-11,"github.com",0
"948",2020-06-11,"pw.edu.pl",15
"949",2020-06-11,"youtube.com",0
"950",2020-06-11,"google.com",28
"951",2020-06-11,"facebook.com",0
"952",2020-06-11,"instagram.com",0
"953",2020-06-12,"stackoverflow.com",0
"954",2020-06-12,"wikipedia.org",0
"955",2020-06-12,"github.com",0
"956",2020-06-12,"pw.edu.pl",16
"957",2020-06-12,"youtube.com",9
"958",2020-06-12,"google.com",91
"959",2020-06-12,"facebook.com",15
"960",2020-06-12,"instagram.com",0
"961",2020-06-13,"stackoverflow.com",0
"962",2020-06-13,"wikipedia.org",0
"963",2020-06-13,"github.com",0
"964",2020-06-13,"pw.edu.pl",40
"965",2020-06-13,"youtube.com",4
"966",2020-06-13,"google.com",12
"967",2020-06-13,"facebook.com",12
"968",2020-06-13,"instagram.com",0
"969",2020-06-14,"stackoverflow.com",0
"970",2020-06-14,"wikipedia.org",0
"971",2020-06-14,"github.com",0
"972",2020-06-14,"pw.edu.pl",10
"973",2020-06-14,"youtube.com",3
"974",2020-06-14,"google.com",83
"975",2020-06-14,"facebook.com",73
"976",2020-06-14,"instagram.com",0
"977",2020-06-15,"stackoverflow.com",0
"978",2020-06-15,"wikipedia.org",0
"979",2020-06-15,"github.com",0
"980",2020-06-15,"pw.edu.pl",44
"981",2020-06-15,"youtube.com",0
"982",2020-06-15,"google.com",71
"983",2020-06-15,"facebook.com",5
"984",2020-06-15,"instagram.com",0
"985",2020-06-16,"stackoverflow.com",0
"986",2020-06-16,"wikipedia.org",0
"987",2020-06-16,"github.com",0
"988",2020-06-16,"pw.edu.pl",15
"989",2020-06-16,"youtube.com",1
"990",2020-06-16,"google.com",43
"991",2020-06-16,"facebook.com",0
"992",2020-06-16,"instagram.com",0
"993",2020-06-17,"stackoverflow.com",0
"994",2020-06-17,"wikipedia.org",0
"995",2020-06-17,"github.com",0
"996",2020-06-17,"pw.edu.pl",2
"997",2020-06-17,"youtube.com",44
"998",2020-06-17,"google.com",69
"999",2020-06-17,"facebook.com",0
"1000",2020-06-17,"instagram.com",0
"1001",2020-06-18,"stackoverflow.com",0
"1002",2020-06-18,"wikipedia.org",1
"1003",2020-06-18,"github.com",0
"1004",2020-06-18,"pw.edu.pl",3
"1005",2020-06-18,"youtube.com",7
"1006",2020-06-18,"google.com",71
"1007",2020-06-18,"facebook.com",8
"1008",2020-06-18,"instagram.com",0
"1009",2020-06-19,"stackoverflow.com",0
"1010",2020-06-19,"wikipedia.org",0
"1011",2020-06-19,"github.com",0
"1012",2020-06-19,"pw.edu.pl",0
"1013",2020-06-19,"youtube.com",11
"1014",2020-06-19,"google.com",20
"1015",2020-06-19,"facebook.com",0
"1016",2020-06-19,"instagram.com",0
"1017",2020-06-20,"stackoverflow.com",0
"1018",2020-06-20,"wikipedia.org",0
"1019",2020-06-20,"github.com",0
"1020",2020-06-20,"pw.edu.pl",7
"1021",2020-06-20,"youtube.com",0
"1022",2020-06-20,"google.com",51
"1023",2020-06-20,"facebook.com",6
"1024",2020-06-20,"instagram.com",0
"1025",2020-06-21,"stackoverflow.com",0
"1026",2020-06-21,"wikipedia.org",0
"1027",2020-06-21,"github.com",0
"1028",2020-06-21,"pw.edu.pl",0
"1029",2020-06-21,"youtube.com",1
"1030",2020-06-21,"google.com",15
"1031",2020-06-21,"facebook.com",0
"1032",2020-06-21,"instagram.com",0
"1033",2020-06-22,"stackoverflow.com",0
"1034",2020-06-22,"wikipedia.org",2
"1035",2020-06-22,"github.com",0
"1036",2020-06-22,"pw.edu.pl",0
"1037",2020-06-22,"youtube.com",1
"1038",2020-06-22,"google.com",88
"1039",2020-06-22,"facebook.com",1
"1040",2020-06-22,"instagram.com",0
"1041",2020-06-23,"stackoverflow.com",0
"1042",2020-06-23,"wikipedia.org",1
"1043",2020-06-23,"github.com",0
"1044",2020-06-23,"pw.edu.pl",6
"1045",2020-06-23,"youtube.com",4
"1046",2020-06-23,"google.com",13
"1047",2020-06-23,"facebook.com",0
"1048",2020-06-23,"instagram.com",0
"1049",2020-06-24,"stackoverflow.com",0
"1050",2020-06-24,"wikipedia.org",1
"1051",2020-06-24,"github.com",0
"1052",2020-06-24,"pw.edu.pl",0
"1053",2020-06-24,"youtube.com",5
"1054",2020-06-24,"google.com",5
"1055",2020-06-24,"facebook.com",0
"1056",2020-06-24,"instagram.com",0
"1057",2020-06-25,"stackoverflow.com",0
"1058",2020-06-25,"wikipedia.org",0
"1059",2020-06-25,"github.com",0
"1060",2020-06-25,"pw.edu.pl",0
"1061",2020-06-25,"youtube.com",1
"1062",2020-06-25,"google.com",11
"1063",2020-06-25,"facebook.com",0
"1064",2020-06-25,"instagram.com",0
"1065",2020-06-26,"stackoverflow.com",0
"1066",2020-06-26,"wikipedia.org",0
"1067",2020-06-26,"github.com",0
"1068",2020-06-26,"pw.edu.pl",0
"1069",2020-06-26,"youtube.com",5
"1070",2020-06-26,"google.com",18
"1071",2020-06-26,"facebook.com",13
"1072",2020-06-26,"instagram.com",0
"1073",2020-06-27,"stackoverflow.com",0
"1074",2020-06-27,"wikipedia.org",0
"1075",2020-06-27,"github.com",0
"1076",2020-06-27,"pw.edu.pl",0
"1077",2020-06-27,"youtube.com",20
"1078",2020-06-27,"google.com",8
"1079",2020-06-27,"facebook.com",0
"1080",2020-06-27,"instagram.com",0
"1081",2020-06-28,"stackoverflow.com",0
"1082",2020-06-28,"wikipedia.org",0
"1083",2020-06-28,"github.com",0
"1084",2020-06-28,"pw.edu.pl",0
"1085",2020-06-28,"youtube.com",0
"1086",2020-06-28,"google.com",21
"1087",2020-06-28,"facebook.com",0
"1088",2020-06-28,"instagram.com",0
"1089",2020-06-29,"stackoverflow.com",0
"1090",2020-06-29,"wikipedia.org",0
"1091",2020-06-29,"github.com",0
"1092",2020-06-29,"pw.edu.pl",0
"1093",2020-06-29,"youtube.com",1
"1094",2020-06-29,"google.com",81
"1095",2020-06-29,"facebook.com",5
"1096",2020-06-29,"instagram.com",0
"1097",2020-06-30,"stackoverflow.com",0
"1098",2020-06-30,"wikipedia.org",0
"1099",2020-06-30,"github.com",0
"1100",2020-06-30,"pw.edu.pl",0
"1101",2020-06-30,"youtube.com",9
"1102",2020-06-30,"google.com",98
"1103",2020-06-30,"facebook.com",12
"1104",2020-06-30,"instagram.com",0
"1105",2020-07-01,"stackoverflow.com",0
"1106",2020-07-01,"wikipedia.org",0
"1107",2020-07-01,"github.com",0
"1108",2020-07-01,"pw.edu.pl",0
"1109",2020-07-01,"youtube.com",0
"1110",2020-07-01,"google.com",4
"1111",2020-07-01,"facebook.com",0
"1112",2020-07-01,"instagram.com",0
"1113",2020-07-02,"stackoverflow.com",0
"1114",2020-07-02,"wikipedia.org",0
"1115",2020-07-02,"github.com",0
"1116",2020-07-02,"pw.edu.pl",0
"1117",2020-07-02,"youtube.com",2
"1118",2020-07-02,"google.com",19
"1119",2020-07-02,"facebook.com",0
"1120",2020-07-02,"instagram.com",0
"1121",2020-07-03,"stackoverflow.com",0
"1122",2020-07-03,"wikipedia.org",0
"1123",2020-07-03,"github.com",0
"1124",2020-07-03,"pw.edu.pl",0
"1125",2020-07-03,"youtube.com",2
"1126",2020-07-03,"google.com",9
"1127",2020-07-03,"facebook.com",0
"1128",2020-07-03,"instagram.com",0
"1129",2020-07-04,"stackoverflow.com",0
"1130",2020-07-04,"wikipedia.org",0
"1131",2020-07-04,"github.com",0
"1132",2020-07-04,"pw.edu.pl",0
"1133",2020-07-04,"youtube.com",0
"1134",2020-07-04,"google.com",2
"1135",2020-07-04,"facebook.com",0
"1136",2020-07-04,"instagram.com",0
"1137",2020-07-05,"stackoverflow.com",0
"1138",2020-07-05,"wikipedia.org",0
"1139",2020-07-05,"github.com",0
"1140",2020-07-05,"pw.edu.pl",0
"1141",2020-07-05,"youtube.com",1
"1142",2020-07-05,"google.com",18
"1143",2020-07-05,"facebook.com",0
"1144",2020-07-05,"instagram.com",0
"1145",2020-07-06,"stackoverflow.com",0
"1146",2020-07-06,"wikipedia.org",0
"1147",2020-07-06,"github.com",0
"1148",2020-07-06,"pw.edu.pl",0
"1149",2020-07-06,"youtube.com",0
"1150",2020-07-06,"google.com",23
"1151",2020-07-06,"facebook.com",0
"1152",2020-07-06,"instagram.com",0
"1153",2020-07-07,"stackoverflow.com",0
"1154",2020-07-07,"wikipedia.org",0
"1155",2020-07-07,"github.com",0
"1156",2020-07-07,"pw.edu.pl",0
"1157",2020-07-07,"youtube.com",0
"1158",2020-07-07,"google.com",36
"1159",2020-07-07,"facebook.com",0
"1160",2020-07-07,"instagram.com",0
"1161",2020-07-08,"stackoverflow.com",0
"1162",2020-07-08,"wikipedia.org",0
"1163",2020-07-08,"github.com",1
"1164",2020-07-08,"pw.edu.pl",0
"1165",2020-07-08,"youtube.com",20
"1166",2020-07-08,"google.com",18
"1167",2020-07-08,"facebook.com",0
"1168",2020-07-08,"instagram.com",0
"1169",2020-07-09,"stackoverflow.com",0
"1170",2020-07-09,"wikipedia.org",0
"1171",2020-07-09,"github.com",0
"1172",2020-07-09,"pw.edu.pl",0
"1173",2020-07-09,"youtube.com",0
"1174",2020-07-09,"google.com",42
"1175",2020-07-09,"facebook.com",0
"1176",2020-07-09,"instagram.com",0
"1177",2020-07-10,"stackoverflow.com",0
"1178",2020-07-10,"wikipedia.org",0
"1179",2020-07-10,"github.com",0
"1180",2020-07-10,"pw.edu.pl",0
"1181",2020-07-10,"youtube.com",0
"1182",2020-07-10,"google.com",31
"1183",2020-07-10,"facebook.com",0
"1184",2020-07-10,"instagram.com",0
"1185",2020-07-11,"stackoverflow.com",0
"1186",2020-07-11,"wikipedia.org",0
"1187",2020-07-11,"github.com",0
"1188",2020-07-11,"pw.edu.pl",0
"1189",2020-07-11,"youtube.com",0
"1190",2020-07-11,"google.com",1
"1191",2020-07-11,"facebook.com",0
"1192",2020-07-11,"instagram.com",0
"1193",2020-07-12,"stackoverflow.com",0
"1194",2020-07-12,"wikipedia.org",0
"1195",2020-07-12,"github.com",0
"1196",2020-07-12,"pw.edu.pl",0
"1197",2020-07-12,"youtube.com",1
"1198",2020-07-12,"google.com",47
"1199",2020-07-12,"facebook.com",0
"1200",2020-07-12,"instagram.com",0
"1201",2020-07-13,"stackoverflow.com",0
"1202",2020-07-13,"wikipedia.org",0
"1203",2020-07-13,"github.com",0
"1204",2020-07-13,"pw.edu.pl",0
"1205",2020-07-13,"youtube.com",0
"1206",2020-07-13,"google.com",3
"1207",2020-07-13,"facebook.com",0
"1208",2020-07-13,"instagram.com",0
"1209",2020-07-14,"stackoverflow.com",0
"1210",2020-07-14,"wikipedia.org",0
"1211",2020-07-14,"github.com",0
"1212",2020-07-14,"pw.edu.pl",0
"1213",2020-07-14,"youtube.com",14
"1214",2020-07-14,"google.com",19
"1215",2020-07-14,"facebook.com",0
"1216",2020-07-14,"instagram.com",0
"1217",2020-07-15,"stackoverflow.com",0
"1218",2020-07-15,"wikipedia.org",10
"1219",2020-07-15,"github.com",0
"1220",2020-07-15,"pw.edu.pl",0
"1221",2020-07-15,"youtube.com",0
"1222",2020-07-15,"google.com",8
"1223",2020-07-15,"facebook.com",0
"1224",2020-07-15,"instagram.com",0
"1225",2020-07-16,"stackoverflow.com",0
"1226",2020-07-16,"wikipedia.org",0
"1227",2020-07-16,"github.com",0
"1228",2020-07-16,"pw.edu.pl",6
"1229",2020-07-16,"youtube.com",0
"1230",2020-07-16,"google.com",11
"1231",2020-07-16,"facebook.com",0
"1232",2020-07-16,"instagram.com",0
"1233",2020-07-17,"stackoverflow.com",0
"1234",2020-07-17,"wikipedia.org",0
"1235",2020-07-17,"github.com",0
"1236",2020-07-17,"pw.edu.pl",0
"1237",2020-07-17,"youtube.com",0
"1238",2020-07-17,"google.com",4
"1239",2020-07-17,"facebook.com",9
"1240",2020-07-17,"instagram.com",0
"1241",2020-07-18,"stackoverflow.com",0
"1242",2020-07-18,"wikipedia.org",2
"1243",2020-07-18,"github.com",0
"1244",2020-07-18,"pw.edu.pl",0
"1245",2020-07-18,"youtube.com",0
"1246",2020-07-18,"google.com",15
"1247",2020-07-18,"facebook.com",0
"1248",2020-07-18,"instagram.com",0
"1249",2020-07-19,"stackoverflow.com",0
"1250",2020-07-19,"wikipedia.org",0
"1251",2020-07-19,"github.com",0
"1252",2020-07-19,"pw.edu.pl",0
"1253",2020-07-19,"youtube.com",0
"1254",2020-07-19,"google.com",4
"1255",2020-07-19,"facebook.com",0
"1256",2020-07-19,"instagram.com",0
"1257",2020-07-20,"stackoverflow.com",0
"1258",2020-07-20,"wikipedia.org",0
"1259",2020-07-20,"github.com",0
"1260",2020-07-20,"pw.edu.pl",0
"1261",2020-07-20,"youtube.com",5
"1262",2020-07-20,"google.com",61
"1263",2020-07-20,"facebook.com",12
"1264",2020-07-20,"instagram.com",0
"1265",2020-07-21,"stackoverflow.com",0
"1266",2020-07-21,"wikipedia.org",0
"1267",2020-07-21,"github.com",0
"1268",2020-07-21,"pw.edu.pl",0
"1269",2020-07-21,"youtube.com",0
"1270",2020-07-21,"google.com",9
"1271",2020-07-21,"facebook.com",0
"1272",2020-07-21,"instagram.com",0
"1273",2020-07-22,"stackoverflow.com",0
"1274",2020-07-22,"wikipedia.org",0
"1275",2020-07-22,"github.com",0
"1276",2020-07-22,"pw.edu.pl",0
"1277",2020-07-22,"youtube.com",0
"1278",2020-07-22,"google.com",9
"1279",2020-07-22,"facebook.com",0
"1280",2020-07-22,"instagram.com",0
"1281",2020-07-23,"stackoverflow.com",0
"1282",2020-07-23,"wikipedia.org",0
"1283",2020-07-23,"github.com",0
"1284",2020-07-23,"pw.edu.pl",0
"1285",2020-07-23,"youtube.com",0
"1286",2020-07-23,"google.com",18
"1287",2020-07-23,"facebook.com",0
"1288",2020-07-23,"instagram.com",0
"1289",2020-07-24,"stackoverflow.com",0
"1290",2020-07-24,"wikipedia.org",0
"1291",2020-07-24,"github.com",0
"1292",2020-07-24,"pw.edu.pl",0
"1293",2020-07-24,"youtube.com",13
"1294",2020-07-24,"google.com",8
"1295",2020-07-24,"facebook.com",0
"1296",2020-07-24,"instagram.com",0
"1297",2020-07-25,"stackoverflow.com",0
"1298",2020-07-25,"wikipedia.org",0
"1299",2020-07-25,"github.com",0
"1300",2020-07-25,"pw.edu.pl",0
"1301",2020-07-25,"youtube.com",0
"1302",2020-07-25,"google.com",25
"1303",2020-07-25,"facebook.com",0
"1304",2020-07-25,"instagram.com",0
"1305",2020-07-26,"stackoverflow.com",0
"1306",2020-07-26,"wikipedia.org",0
"1307",2020-07-26,"github.com",0
"1308",2020-07-26,"pw.edu.pl",0
"1309",2020-07-26,"youtube.com",1
"1310",2020-07-26,"google.com",14
"1311",2020-07-26,"facebook.com",0
"1312",2020-07-26,"instagram.com",0
"1313",2020-07-27,"stackoverflow.com",0
"1314",2020-07-27,"wikipedia.org",1
"1315",2020-07-27,"github.com",0
"1316",2020-07-27,"pw.edu.pl",0
"1317",2020-07-27,"youtube.com",1
"1318",2020-07-27,"google.com",31
"1319",2020-07-27,"facebook.com",0
"1320",2020-07-27,"instagram.com",0
"1321",2020-07-28,"stackoverflow.com",0
"1322",2020-07-28,"wikipedia.org",0
"1323",2020-07-28,"github.com",0
"1324",2020-07-28,"pw.edu.pl",0
"1325",2020-07-28,"youtube.com",8
"1326",2020-07-28,"google.com",22
"1327",2020-07-28,"facebook.com",0
"1328",2020-07-28,"instagram.com",0
"1329",2020-07-29,"stackoverflow.com",0
"1330",2020-07-29,"wikipedia.org",6
"1331",2020-07-29,"github.com",0
"1332",2020-07-29,"pw.edu.pl",15
"1333",2020-07-29,"youtube.com",0
"1334",2020-07-29,"google.com",13
"1335",2020-07-29,"facebook.com",0
"1336",2020-07-29,"instagram.com",0
"1337",2020-07-30,"stackoverflow.com",0
"1338",2020-07-30,"wikipedia.org",0
"1339",2020-07-30,"github.com",0
"1340",2020-07-30,"pw.edu.pl",0
"1341",2020-07-30,"youtube.com",0
"1342",2020-07-30,"google.com",17
"1343",2020-07-30,"facebook.com",0
"1344",2020-07-30,"instagram.com",1
"1345",2020-07-31,"stackoverflow.com",0
"1346",2020-07-31,"wikipedia.org",0
"1347",2020-07-31,"github.com",0
"1348",2020-07-31,"pw.edu.pl",0
"1349",2020-07-31,"youtube.com",6
"1350",2020-07-31,"google.com",38
"1351",2020-07-31,"facebook.com",0
"1352",2020-07-31,"instagram.com",0
"1353",2020-08-01,"stackoverflow.com",0
"1354",2020-08-01,"wikipedia.org",2
"1355",2020-08-01,"github.com",0
"1356",2020-08-01,"pw.edu.pl",0
"1357",2020-08-01,"youtube.com",0
"1358",2020-08-01,"google.com",37
"1359",2020-08-01,"facebook.com",0
"1360",2020-08-01,"instagram.com",0
"1361",2020-08-02,"stackoverflow.com",0
"1362",2020-08-02,"wikipedia.org",1
"1363",2020-08-02,"github.com",0
"1364",2020-08-02,"pw.edu.pl",0
"1365",2020-08-02,"youtube.com",11
"1366",2020-08-02,"google.com",81
"1367",2020-08-02,"facebook.com",7
"1368",2020-08-02,"instagram.com",0
"1369",2020-08-03,"stackoverflow.com",0
"1370",2020-08-03,"wikipedia.org",1
"1371",2020-08-03,"github.com",0
"1372",2020-08-03,"pw.edu.pl",0
"1373",2020-08-03,"youtube.com",1
"1374",2020-08-03,"google.com",171
"1375",2020-08-03,"facebook.com",170
"1376",2020-08-03,"instagram.com",0
"1377",2020-08-04,"stackoverflow.com",0
"1378",2020-08-04,"wikipedia.org",3
"1379",2020-08-04,"github.com",0
"1380",2020-08-04,"pw.edu.pl",0
"1381",2020-08-04,"youtube.com",3
"1382",2020-08-04,"google.com",56
"1383",2020-08-04,"facebook.com",6
"1384",2020-08-04,"instagram.com",0
"1385",2020-08-05,"stackoverflow.com",0
"1386",2020-08-05,"wikipedia.org",0
"1387",2020-08-05,"github.com",0
"1388",2020-08-05,"pw.edu.pl",0
"1389",2020-08-05,"youtube.com",0
"1390",2020-08-05,"google.com",19
"1391",2020-08-05,"facebook.com",0
"1392",2020-08-05,"instagram.com",0
"1393",2020-08-06,"stackoverflow.com",0
"1394",2020-08-06,"wikipedia.org",1
"1395",2020-08-06,"github.com",0
"1396",2020-08-06,"pw.edu.pl",0
"1397",2020-08-06,"youtube.com",0
"1398",2020-08-06,"google.com",12
"1399",2020-08-06,"facebook.com",0
"1400",2020-08-06,"instagram.com",0
"1401",2020-08-07,"stackoverflow.com",0
"1402",2020-08-07,"wikipedia.org",0
"1403",2020-08-07,"github.com",0
"1404",2020-08-07,"pw.edu.pl",0
"1405",2020-08-07,"youtube.com",0
"1406",2020-08-07,"google.com",29
"1407",2020-08-07,"facebook.com",0
"1408",2020-08-07,"instagram.com",0
"1409",2020-08-08,"stackoverflow.com",0
"1410",2020-08-08,"wikipedia.org",1
"1411",2020-08-08,"github.com",0
"1412",2020-08-08,"pw.edu.pl",0
"1413",2020-08-08,"youtube.com",1
"1414",2020-08-08,"google.com",36
"1415",2020-08-08,"facebook.com",0
"1416",2020-08-08,"instagram.com",0
"1417",2020-08-09,"stackoverflow.com",0
"1418",2020-08-09,"wikipedia.org",0
"1419",2020-08-09,"github.com",0
"1420",2020-08-09,"pw.edu.pl",0
"1421",2020-08-09,"youtube.com",6
"1422",2020-08-09,"google.com",25
"1423",2020-08-09,"facebook.com",0
"1424",2020-08-09,"instagram.com",0
"1425",2020-08-10,"stackoverflow.com",0
"1426",2020-08-10,"wikipedia.org",0
"1427",2020-08-10,"github.com",0
"1428",2020-08-10,"pw.edu.pl",0
"1429",2020-08-10,"youtube.com",17
"1430",2020-08-10,"google.com",40
"1431",2020-08-10,"facebook.com",6
"1432",2020-08-10,"instagram.com",6
"1433",2020-08-11,"stackoverflow.com",0
"1434",2020-08-11,"wikipedia.org",0
"1435",2020-08-11,"github.com",0
"1436",2020-08-11,"pw.edu.pl",0
"1437",2020-08-11,"youtube.com",25
"1438",2020-08-11,"google.com",10
"1439",2020-08-11,"facebook.com",16
"1440",2020-08-11,"instagram.com",0
"1441",2020-08-12,"stackoverflow.com",0
"1442",2020-08-12,"wikipedia.org",0
"1443",2020-08-12,"github.com",0
"1444",2020-08-12,"pw.edu.pl",0
"1445",2020-08-12,"youtube.com",9
"1446",2020-08-12,"google.com",8
"1447",2020-08-12,"facebook.com",0
"1448",2020-08-12,"instagram.com",0
"1449",2020-08-13,"stackoverflow.com",0
"1450",2020-08-13,"wikipedia.org",0
"1451",2020-08-13,"github.com",0
"1452",2020-08-13,"pw.edu.pl",0
"1453",2020-08-13,"youtube.com",12
"1454",2020-08-13,"google.com",37
"1455",2020-08-13,"facebook.com",9
"1456",2020-08-13,"instagram.com",0
"1457",2020-08-14,"stackoverflow.com",0
"1458",2020-08-14,"wikipedia.org",1
"1459",2020-08-14,"github.com",0
"1460",2020-08-14,"pw.edu.pl",0
"1461",2020-08-14,"youtube.com",4
"1462",2020-08-14,"google.com",49
"1463",2020-08-14,"facebook.com",0
"1464",2020-08-14,"instagram.com",0
"1465",2020-08-15,"stackoverflow.com",0
"1466",2020-08-15,"wikipedia.org",0
"1467",2020-08-15,"github.com",0
"1468",2020-08-15,"pw.edu.pl",0
"1469",2020-08-15,"youtube.com",33
"1470",2020-08-15,"google.com",27
"1471",2020-08-15,"facebook.com",0
"1472",2020-08-15,"instagram.com",0
"1473",2020-08-16,"stackoverflow.com",0
"1474",2020-08-16,"wikipedia.org",1
"1475",2020-08-16,"github.com",0
"1476",2020-08-16,"pw.edu.pl",0
"1477",2020-08-16,"youtube.com",0
"1478",2020-08-16,"google.com",78
"1479",2020-08-16,"facebook.com",0
"1480",2020-08-16,"instagram.com",0
"1481",2020-08-17,"stackoverflow.com",0
"1482",2020-08-17,"wikipedia.org",0
"1483",2020-08-17,"github.com",0
"1484",2020-08-17,"pw.edu.pl",0
"1485",2020-08-17,"youtube.com",10
"1486",2020-08-17,"google.com",32
"1487",2020-08-17,"facebook.com",8
"1488",2020-08-17,"instagram.com",0
"1489",2020-08-18,"stackoverflow.com",0
"1490",2020-08-18,"wikipedia.org",0
"1491",2020-08-18,"github.com",0
"1492",2020-08-18,"pw.edu.pl",0
"1493",2020-08-18,"youtube.com",0
"1494",2020-08-18,"google.com",15
"1495",2020-08-18,"facebook.com",0
"1496",2020-08-18,"instagram.com",0
"1497",2020-08-19,"stackoverflow.com",0
"1498",2020-08-19,"wikipedia.org",0
"1499",2020-08-19,"github.com",0
"1500",2020-08-19,"pw.edu.pl",2
"1501",2020-08-19,"youtube.com",0
"1502",2020-08-19,"google.com",24
"1503",2020-08-19,"facebook.com",45
"1504",2020-08-19,"instagram.com",0
"1505",2020-08-20,"stackoverflow.com",0
"1506",2020-08-20,"wikipedia.org",0
"1507",2020-08-20,"github.com",0
"1508",2020-08-20,"pw.edu.pl",0
"1509",2020-08-20,"youtube.com",0
"1510",2020-08-20,"google.com",7
"1511",2020-08-20,"facebook.com",5
"1512",2020-08-20,"instagram.com",0
"1513",2020-08-21,"stackoverflow.com",0
"1514",2020-08-21,"wikipedia.org",0
"1515",2020-08-21,"github.com",0
"1516",2020-08-21,"pw.edu.pl",0
"1517",2020-08-21,"youtube.com",0
"1518",2020-08-21,"google.com",14
"1519",2020-08-21,"facebook.com",0
"1520",2020-08-21,"instagram.com",0
"1521",2020-08-22,"stackoverflow.com",0
"1522",2020-08-22,"wikipedia.org",0
"1523",2020-08-22,"github.com",0
"1524",2020-08-22,"pw.edu.pl",0
"1525",2020-08-22,"youtube.com",0
"1526",2020-08-22,"google.com",25
"1527",2020-08-22,"facebook.com",0
"1528",2020-08-22,"instagram.com",0
"1529",2020-08-23,"stackoverflow.com",0
"1530",2020-08-23,"wikipedia.org",0
"1531",2020-08-23,"github.com",0
"1532",2020-08-23,"pw.edu.pl",0
"1533",2020-08-23,"youtube.com",12
"1534",2020-08-23,"google.com",13
"1535",2020-08-23,"facebook.com",0
"1536",2020-08-23,"instagram.com",0
"1537",2020-08-24,"stackoverflow.com",0
"1538",2020-08-24,"wikipedia.org",0
"1539",2020-08-24,"github.com",0
"1540",2020-08-24,"pw.edu.pl",2
"1541",2020-08-24,"youtube.com",0
"1542",2020-08-24,"google.com",2
"1543",2020-08-24,"facebook.com",0
"1544",2020-08-24,"instagram.com",0
"1545",2020-08-25,"stackoverflow.com",0
"1546",2020-08-25,"wikipedia.org",0
"1547",2020-08-25,"github.com",0
"1548",2020-08-25,"pw.edu.pl",0
"1549",2020-08-25,"youtube.com",10
"1550",2020-08-25,"google.com",4
"1551",2020-08-25,"facebook.com",0
"1552",2020-08-25,"instagram.com",0
"1553",2020-08-26,"stackoverflow.com",0
"1554",2020-08-26,"wikipedia.org",0
"1555",2020-08-26,"github.com",0
"1556",2020-08-26,"pw.edu.pl",0
"1557",2020-08-26,"youtube.com",6
"1558",2020-08-26,"google.com",13
"1559",2020-08-26,"facebook.com",0
"1560",2020-08-26,"instagram.com",0
"1561",2020-08-27,"stackoverflow.com",0
"1562",2020-08-27,"wikipedia.org",0
"1563",2020-08-27,"github.com",0
"1564",2020-08-27,"pw.edu.pl",0
"1565",2020-08-27,"youtube.com",5
"1566",2020-08-27,"google.com",16
"1567",2020-08-27,"facebook.com",0
"1568",2020-08-27,"instagram.com",0
"1569",2020-08-28,"stackoverflow.com",0
"1570",2020-08-28,"wikipedia.org",1
"1571",2020-08-28,"github.com",0
"1572",2020-08-28,"pw.edu.pl",0
"1573",2020-08-28,"youtube.com",14
"1574",2020-08-28,"google.com",50
"1575",2020-08-28,"facebook.com",0
"1576",2020-08-28,"instagram.com",0
"1577",2020-08-29,"stackoverflow.com",0
"1578",2020-08-29,"wikipedia.org",1
"1579",2020-08-29,"github.com",0
"1580",2020-08-29,"pw.edu.pl",6
"1581",2020-08-29,"youtube.com",0
"1582",2020-08-29,"google.com",13
"1583",2020-08-29,"facebook.com",0
"1584",2020-08-29,"instagram.com",0
"1585",2020-08-30,"stackoverflow.com",0
"1586",2020-08-30,"wikipedia.org",0
"1587",2020-08-30,"github.com",0
"1588",2020-08-30,"pw.edu.pl",0
"1589",2020-08-30,"youtube.com",0
"1590",2020-08-30,"google.com",10
"1591",2020-08-30,"facebook.com",0
"1592",2020-08-30,"instagram.com",0
"1593",2020-08-31,"stackoverflow.com",0
"1594",2020-08-31,"wikipedia.org",0
"1595",2020-08-31,"github.com",0
"1596",2020-08-31,"pw.edu.pl",0
"1597",2020-08-31,"youtube.com",0
"1598",2020-08-31,"google.com",70
"1599",2020-08-31,"facebook.com",0
"1600",2020-08-31,"instagram.com",0
"1601",2020-09-01,"stackoverflow.com",0
"1602",2020-09-01,"wikipedia.org",0
"1603",2020-09-01,"github.com",0
"1604",2020-09-01,"pw.edu.pl",5
"1605",2020-09-01,"youtube.com",0
"1606",2020-09-01,"google.com",51
"1607",2020-09-01,"facebook.com",10
"1608",2020-09-01,"instagram.com",0
"1609",2020-09-02,"stackoverflow.com",0
"1610",2020-09-02,"wikipedia.org",1
"1611",2020-09-02,"github.com",0
"1612",2020-09-02,"pw.edu.pl",5
"1613",2020-09-02,"youtube.com",21
"1614",2020-09-02,"google.com",66
"1615",2020-09-02,"facebook.com",17
"1616",2020-09-02,"instagram.com",0
"1617",2020-09-03,"stackoverflow.com",0
"1618",2020-09-03,"wikipedia.org",1
"1619",2020-09-03,"github.com",0
"1620",2020-09-03,"pw.edu.pl",75
"1621",2020-09-03,"youtube.com",2
"1622",2020-09-03,"google.com",19
"1623",2020-09-03,"facebook.com",0
"1624",2020-09-03,"instagram.com",0
"1625",2020-09-04,"stackoverflow.com",0
"1626",2020-09-04,"wikipedia.org",0
"1627",2020-09-04,"github.com",0
"1628",2020-09-04,"pw.edu.pl",0
"1629",2020-09-04,"youtube.com",0
"1630",2020-09-04,"google.com",14
"1631",2020-09-04,"facebook.com",0
"1632",2020-09-04,"instagram.com",0
"1633",2020-09-05,"stackoverflow.com",0
"1634",2020-09-05,"wikipedia.org",0
"1635",2020-09-05,"github.com",0
"1636",2020-09-05,"pw.edu.pl",0
"1637",2020-09-05,"youtube.com",1
"1638",2020-09-05,"google.com",8
"1639",2020-09-05,"facebook.com",0
"1640",2020-09-05,"instagram.com",0
"1641",2020-09-06,"stackoverflow.com",0
"1642",2020-09-06,"wikipedia.org",0
"1643",2020-09-06,"github.com",0
"1644",2020-09-06,"pw.edu.pl",0
"1645",2020-09-06,"youtube.com",16
"1646",2020-09-06,"google.com",18
"1647",2020-09-06,"facebook.com",0
"1648",2020-09-06,"instagram.com",0
"1649",2020-09-07,"stackoverflow.com",0
"1650",2020-09-07,"wikipedia.org",2
"1651",2020-09-07,"github.com",0
"1652",2020-09-07,"pw.edu.pl",0
"1653",2020-09-07,"youtube.com",2
"1654",2020-09-07,"google.com",31
"1655",2020-09-07,"facebook.com",0
"1656",2020-09-07,"instagram.com",0
"1657",2020-09-08,"stackoverflow.com",0
"1658",2020-09-08,"wikipedia.org",1
"1659",2020-09-08,"github.com",0
"1660",2020-09-08,"pw.edu.pl",0
"1661",2020-09-08,"youtube.com",0
"1662",2020-09-08,"google.com",10
"1663",2020-09-08,"facebook.com",0
"1664",2020-09-08,"instagram.com",0
"1665",2020-09-09,"stackoverflow.com",0
"1666",2020-09-09,"wikipedia.org",1
"1667",2020-09-09,"github.com",0
"1668",2020-09-09,"pw.edu.pl",0
"1669",2020-09-09,"youtube.com",0
"1670",2020-09-09,"google.com",4
"1671",2020-09-09,"facebook.com",0
"1672",2020-09-09,"instagram.com",0
"1673",2020-09-10,"stackoverflow.com",0
"1674",2020-09-10,"wikipedia.org",0
"1675",2020-09-10,"github.com",0
"1676",2020-09-10,"pw.edu.pl",0
"1677",2020-09-10,"youtube.com",30
"1678",2020-09-10,"google.com",22
"1679",2020-09-10,"facebook.com",0
"1680",2020-09-10,"instagram.com",0
"1681",2020-09-11,"stackoverflow.com",0
"1682",2020-09-11,"wikipedia.org",0
"1683",2020-09-11,"github.com",0
"1684",2020-09-11,"pw.edu.pl",15
"1685",2020-09-11,"youtube.com",0
"1686",2020-09-11,"google.com",0
"1687",2020-09-11,"facebook.com",0
"1688",2020-09-11,"instagram.com",0
"1689",2020-09-12,"stackoverflow.com",0
"1690",2020-09-12,"wikipedia.org",0
"1691",2020-09-12,"github.com",0
"1692",2020-09-12,"pw.edu.pl",1
"1693",2020-09-12,"youtube.com",0
"1694",2020-09-12,"google.com",3
"1695",2020-09-12,"facebook.com",0
"1696",2020-09-12,"instagram.com",0
"1697",2020-09-13,"stackoverflow.com",0
"1698",2020-09-13,"wikipedia.org",0
"1699",2020-09-13,"github.com",0
"1700",2020-09-13,"pw.edu.pl",0
"1701",2020-09-13,"youtube.com",10
"1702",2020-09-13,"google.com",18
"1703",2020-09-13,"facebook.com",0
"1704",2020-09-13,"instagram.com",0
"1705",2020-09-14,"stackoverflow.com",0
"1706",2020-09-14,"wikipedia.org",1
"1707",2020-09-14,"github.com",0
"1708",2020-09-14,"pw.edu.pl",0
"1709",2020-09-14,"youtube.com",0
"1710",2020-09-14,"google.com",30
"1711",2020-09-14,"facebook.com",0
"1712",2020-09-14,"instagram.com",0
"1713",2020-09-15,"stackoverflow.com",0
"1714",2020-09-15,"wikipedia.org",1
"1715",2020-09-15,"github.com",5
"1716",2020-09-15,"pw.edu.pl",0
"1717",2020-09-15,"youtube.com",4
"1718",2020-09-15,"google.com",28
"1719",2020-09-15,"facebook.com",0
"1720",2020-09-15,"instagram.com",0
"1721",2020-09-16,"stackoverflow.com",0
"1722",2020-09-16,"wikipedia.org",1
"1723",2020-09-16,"github.com",0
"1724",2020-09-16,"pw.edu.pl",0
"1725",2020-09-16,"youtube.com",0
"1726",2020-09-16,"google.com",75
"1727",2020-09-16,"facebook.com",1
"1728",2020-09-16,"instagram.com",0
"1729",2020-09-17,"stackoverflow.com",0
"1730",2020-09-17,"wikipedia.org",0
"1731",2020-09-17,"github.com",0
"1732",2020-09-17,"pw.edu.pl",0
"1733",2020-09-17,"youtube.com",0
"1734",2020-09-17,"google.com",8
"1735",2020-09-17,"facebook.com",0
"1736",2020-09-17,"instagram.com",0
"1737",2020-09-18,"stackoverflow.com",0
"1738",2020-09-18,"wikipedia.org",0
"1739",2020-09-18,"github.com",0
"1740",2020-09-18,"pw.edu.pl",16
"1741",2020-09-18,"youtube.com",0
