"","time_usec","domain"
"1",2021-01-10 21:05:50,"google.com"
"2",2021-01-10 21:05:17,"google.com"
"3",2021-01-10 21:05:13,"google.com"
"4",2021-01-10 21:05:08,"google.com"
"5",2021-01-10 21:04:37,"google.com"
"6",2021-01-10 21:04:36,"google.com"
"7",2021-01-10 21:04:30,"google.com"
"8",2021-01-10 21:03:48,"google.com"
"9",2021-01-10 21:03:46,"google.com"
"10",2021-01-10 21:03:28,"google.com"
"11",2021-01-10 21:03:05,"github.com"
"12",2021-01-10 21:02:53,"google.com"
"13",2021-01-10 21:02:48,"google.com"
"14",2021-01-10 21:02:47,"google.com"
"15",2021-01-10 21:02:29,"github.com"
"16",2021-01-10 21:02:29,"github.com"
"17",2021-01-10 21:02:02,"facebook.com"
"18",2021-01-10 21:02:02,"facebook.com"
"19",2021-01-10 21:01:59,"facebook.com"
"20",2021-01-10 21:01:57,"facebook.com"
"21",2021-01-10 20:46:52,"google.com"
"22",2021-01-10 20:46:50,"google.com"
"23",2021-01-10 20:46:39,"github.com"
"24",2021-01-10 20:46:37,"google.com"
"25",2021-01-10 19:07:06,"pw.edu.pl"
"26",2021-01-10 19:07:04,"google.com"
"27",2021-01-10 19:06:43,"google.com"
"28",2021-01-10 19:02:41,"google.com"
"29",2021-01-10 18:55:17,"google.com"
"30",2021-01-10 18:36:33,"google.com"
"31",2021-01-10 18:36:18,"google.com"
"32",2021-01-10 18:11:52,"google.com"
"33",2021-01-10 18:11:10,"google.com"
"34",2021-01-10 14:08:33,"google.com"
"35",2021-01-10 13:53:42,"google.com"
"36",2021-01-10 13:53:40,"google.com"
"37",2021-01-10 13:36:55,"google.com"
"38",2021-01-10 13:36:33,"google.com"
"39",2021-01-10 13:28:00,"google.com"
"40",2021-01-10 12:51:46,"pw.edu.pl"
"41",2021-01-10 12:51:42,"pw.edu.pl"
"42",2021-01-10 12:48:02,"google.com"
"43",2021-01-10 12:34:30,"pw.edu.pl"
"44",2021-01-10 12:22:23,"google.com"
"45",2021-01-10 12:09:34,"google.com"
"46",2021-01-10 12:09:28,"google.com"
"47",2021-01-10 12:09:10,"google.com"
"48",2021-01-10 12:07:57,"google.com"
"49",2021-01-10 12:06:48,"google.com"
"50",2021-01-10 12:00:51,"google.com"
"51",2021-01-10 12:00:40,"google.com"
"52",2021-01-10 11:53:38,"pw.edu.pl"
"53",2021-01-10 11:26:33,"pw.edu.pl"
"54",2021-01-10 11:26:24,"pw.edu.pl"
"55",2021-01-10 11:26:16,"pw.edu.pl"
"56",2021-01-10 11:26:09,"pw.edu.pl"
"57",2021-01-10 11:26:00,"pw.edu.pl"
"58",2021-01-10 11:25:59,"google.com"
"59",2021-01-10 11:25:49,"google.com"
"60",2021-01-10 11:25:45,"google.com"
"61",2021-01-10 11:25:41,"google.com"
"62",2021-01-10 11:19:23,"google.com"
"63",2021-01-10 11:19:15,"google.com"
"64",2021-01-10 11:16:47,"pw.edu.pl"
"65",2021-01-10 11:16:43,"pw.edu.pl"
"66",2021-01-10 11:16:35,"pw.edu.pl"
"67",2021-01-10 11:16:33,"pw.edu.pl"
"68",2021-01-10 11:15:56,"pw.edu.pl"
"69",2021-01-10 11:15:38,"pw.edu.pl"
"70",2021-01-10 11:15:18,"pw.edu.pl"
"71",2021-01-10 11:14:47,"pw.edu.pl"
"72",2021-01-10 11:14:35,"pw.edu.pl"
"73",2021-01-10 01:39:57,"google.com"
"74",2021-01-10 01:39:54,"google.com"
"75",2021-01-10 01:36:09,"google.com"
"76",2021-01-10 01:20:06,"google.com"
"77",2021-01-09 22:20:06,"youtube.com"
"78",2021-01-09 22:20:06,"youtube.com"
"79",2021-01-09 22:19:47,"youtube.com"
"80",2021-01-09 15:21:14,"google.com"
"81",2021-01-09 15:21:03,"google.com"
"82",2021-01-09 11:43:47,"google.com"
"83",2021-01-09 11:43:44,"google.com"
"84",2021-01-09 11:13:33,"youtube.com"
"85",2021-01-09 11:13:31,"youtube.com"
"86",2021-01-09 11:13:01,"youtube.com"
"87",2021-01-09 11:10:12,"google.com"
"88",2021-01-09 11:09:24,"google.com"
"89",2021-01-09 11:09:05,"google.com"
"90",2021-01-09 11:08:34,"google.com"
"91",2021-01-08 19:27:31,"google.com"
"92",2021-01-08 19:27:24,"google.com"
"93",2021-01-08 19:26:59,"google.com"
"94",2021-01-08 16:20:27,"google.com"
"95",2021-01-08 15:04:39,"google.com"
"96",2021-01-08 14:51:54,"google.com"
"97",2021-01-08 14:51:06,"google.com"
"98",2021-01-08 14:36:54,"google.com"
"99",2021-01-08 10:31:46,"google.com"
"100",2021-01-08 01:24:05,"google.com"
"101",2021-01-08 01:23:30,"google.com"
"102",2021-01-08 01:23:28,"google.com"
"103",2021-01-08 01:23:10,"google.com"
"104",2021-01-08 00:34:19,"google.com"
"105",2021-01-08 00:33:51,"google.com"
"106",2021-01-08 00:31:48,"youtube.com"
"107",2021-01-08 00:31:44,"google.com"
"108",2021-01-08 00:30:53,"youtube.com"
"109",2021-01-08 00:30:45,"youtube.com"
"110",2021-01-08 00:11:50,"youtube.com"
"111",2021-01-08 00:11:40,"youtube.com"
"112",2021-01-08 00:11:23,"youtube.com"
"113",2021-01-08 00:10:02,"youtube.com"
"114",2021-01-08 00:10:02,"youtube.com"
"115",2021-01-08 00:09:13,"youtube.com"
"116",2021-01-08 00:09:06,"youtube.com"
"117",2021-01-08 00:08:26,"youtube.com"
"118",2021-01-08 00:08:26,"youtube.com"
"119",2021-01-08 00:04:40,"youtube.com"
"120",2021-01-08 00:04:32,"youtube.com"
"121",2021-01-07 22:48:17,"youtube.com"
"122",2021-01-07 22:48:17,"youtube.com"
"123",2021-01-07 22:48:08,"youtube.com"
"124",2021-01-07 16:57:50,"google.com"
"125",2021-01-07 16:55:19,"google.com"
"126",2021-01-07 16:54:51,"google.com"
"127",2021-01-07 16:54:50,"google.com"
"128",2021-01-07 16:54:40,"google.com"
"129",2021-01-07 16:54:28,"google.com"
"130",2021-01-07 16:36:49,"google.com"
"131",2021-01-07 16:36:16,"google.com"
"132",2021-01-07 16:36:03,"google.com"
"133",2021-01-07 16:33:19,"google.com"
"134",2021-01-07 16:32:53,"google.com"
"135",2021-01-07 16:32:47,"google.com"
"136",2021-01-07 16:32:23,"google.com"
"137",2021-01-07 16:28:02,"google.com"
"138",2021-01-07 16:23:22,"youtube.com"
"139",2021-01-07 16:23:18,"youtube.com"
"140",2021-01-07 16:23:18,"youtube.com"
"141",2021-01-07 16:23:01,"youtube.com"
"142",2021-01-07 16:22:58,"youtube.com"
"143",2021-01-07 16:13:28,"youtube.com"
"144",2021-01-07 16:13:28,"youtube.com"
"145",2021-01-07 16:13:19,"youtube.com"
"146",2021-01-07 16:11:22,"wikipedia.org"
"147",2021-01-07 16:11:20,"google.com"
"148",2021-01-07 15:47:20,"youtube.com"
"149",2021-01-07 15:47:20,"youtube.com"
"150",2021-01-07 15:47:11,"youtube.com"
"151",2021-01-07 15:44:52,"google.com"
"152",2021-01-07 15:44:36,"pw.edu.pl"
"153",2021-01-07 15:44:33,"pw.edu.pl"
"154",2021-01-07 15:44:32,"pw.edu.pl"
"155",2021-01-07 15:44:22,"pw.edu.pl"
"156",2021-01-07 15:30:57,"facebook.com"
"157",2021-01-07 15:30:56,"facebook.com"
"158",2021-01-07 15:07:11,"youtube.com"
"159",2021-01-07 15:07:11,"youtube.com"
"160",2021-01-07 15:06:57,"youtube.com"
"161",2021-01-07 15:06:37,"youtube.com"
"162",2021-01-07 15:06:37,"youtube.com"
"163",2021-01-07 15:06:24,"youtube.com"
"164",2021-01-07 14:23:35,"facebook.com"
"165",2021-01-07 14:23:07,"facebook.com"
"166",2021-01-07 14:23:07,"facebook.com"
"167",2021-01-07 14:23:04,"facebook.com"
"168",2021-01-07 14:23:04,"facebook.com"
"169",2021-01-07 13:29:48,"google.com"
"170",2021-01-07 11:18:00,"pw.edu.pl"
"171",2021-01-07 11:16:50,"pw.edu.pl"
"172",2021-01-07 11:16:49,"pw.edu.pl"
"173",2021-01-07 11:16:45,"pw.edu.pl"
"174",2021-01-07 09:06:45,"youtube.com"
"175",2021-01-07 09:00:55,"youtube.com"
"176",2021-01-07 08:45:28,"youtube.com"
"177",2021-01-07 08:24:42,"youtube.com"
"178",2021-01-07 08:24:42,"youtube.com"
"179",2021-01-07 08:17:21,"youtube.com"
"180",2021-01-07 08:17:21,"youtube.com"
"181",2021-01-07 08:17:21,"youtube.com"
"182",2021-01-07 08:17:10,"youtube.com"
"183",2021-01-07 00:00:40,"google.com"
"184",2021-01-07 00:00:39,"google.com"
"185",2021-01-07 00:00:31,"google.com"
"186",2021-01-07 00:00:29,"google.com"
"187",2021-01-06 20:59:53,"youtube.com"
"188",2021-01-06 20:59:44,"youtube.com"
"189",2021-01-06 20:59:39,"youtube.com"
"190",2021-01-06 20:59:39,"youtube.com"
"191",2021-01-06 20:59:28,"youtube.com"
"192",2021-01-06 19:27:33,"google.com"
"193",2021-01-06 19:27:05,"google.com"
"194",2021-01-06 19:26:53,"google.com"
"195",2021-01-06 19:25:59,"google.com"
"196",2021-01-06 19:25:31,"google.com"
"197",2021-01-06 19:25:29,"google.com"
"198",2021-01-06 15:37:58,"google.com"
"199",2021-01-06 13:41:59,"google.com"
"200",2021-01-06 13:41:54,"google.com"
"201",2021-01-06 13:41:50,"google.com"
"202",2021-01-06 13:41:32,"google.com"
"203",2021-01-06 13:41:29,"google.com"
"204",2021-01-05 23:39:42,"google.com"
"205",2021-01-05 23:39:37,"google.com"
"206",2021-01-05 23:39:27,"google.com"
"207",2021-01-05 23:39:20,"google.com"
"208",2021-01-05 23:39:12,"google.com"
"209",2021-01-05 23:38:57,"google.com"
"210",2021-01-05 23:38:56,"google.com"
"211",2021-01-05 23:38:47,"google.com"
"212",2021-01-05 23:38:45,"google.com"
"213",2021-01-05 21:16:16,"google.com"
"214",2021-01-05 18:21:01,"google.com"
"215",2021-01-05 16:53:10,"pw.edu.pl"
"216",2021-01-05 16:53:09,"pw.edu.pl"
"217",2021-01-05 16:53:07,"pw.edu.pl"
"218",2021-01-05 16:53:05,"pw.edu.pl"
"219",2021-01-05 16:53:03,"pw.edu.pl"
"220",2021-01-05 16:51:26,"google.com"
"221",2021-01-05 16:50:39,"google.com"
"222",2021-01-05 15:08:22,"google.com"
"223",2021-01-05 15:08:08,"google.com"
"224",2021-01-05 15:07:58,"google.com"
"225",2021-01-05 15:07:46,"google.com"
"226",2021-01-05 15:07:45,"google.com"
"227",2021-01-05 15:07:36,"google.com"
"228",2021-01-05 15:07:25,"google.com"
"229",2021-01-05 15:04:46,"google.com"
"230",2021-01-05 15:03:56,"google.com"
"231",2021-01-05 15:02:27,"google.com"
"232",2021-01-05 13:15:48,"pw.edu.pl"
"233",2021-01-05 13:15:44,"pw.edu.pl"
"234",2021-01-05 13:15:42,"pw.edu.pl"
"235",2021-01-05 11:35:17,"google.com"
"236",2021-01-05 11:34:49,"google.com"
"237",2021-01-05 00:51:13,"google.com"
"238",2021-01-05 00:09:49,"youtube.com"
"239",2021-01-04 23:51:32,"youtube.com"
"240",2021-01-04 23:51:32,"youtube.com"
"241",2021-01-04 23:51:25,"youtube.com"
"242",2021-01-04 23:26:56,"google.com"
"243",2021-01-04 23:25:54,"google.com"
"244",2021-01-04 22:07:04,"google.com"
"245",2021-01-04 22:02:50,"google.com"
"246",2021-01-04 18:59:29,"google.com"
"247",2021-01-04 18:59:17,"wikipedia.org"
"248",2021-01-04 18:59:11,"google.com"
"249",2021-01-04 18:58:29,"google.com"
"250",2021-01-04 18:58:17,"google.com"
"251",2021-01-04 18:58:00,"google.com"
"252",2021-01-04 18:50:24,"google.com"
"253",2021-01-04 18:50:14,"google.com"
"254",2021-01-04 18:45:47,"google.com"
"255",2021-01-04 15:36:37,"google.com"
"256",2021-01-04 15:36:34,"google.com"
"257",2021-01-04 15:30:54,"google.com"
"258",2021-01-04 15:29:44,"google.com"
"259",2021-01-04 15:29:42,"google.com"
"260",2021-01-04 15:29:33,"google.com"
"261",2021-01-04 15:13:17,"google.com"
"262",2021-01-04 15:12:52,"google.com"
"263",2021-01-04 14:53:31,"youtube.com"
"264",2021-01-04 14:53:31,"youtube.com"
"265",2021-01-04 14:51:25,"youtube.com"
"266",2021-01-04 14:51:23,"youtube.com"
"267",2021-01-04 14:51:12,"youtube.com"
"268",2021-01-04 14:50:45,"youtube.com"
"269",2021-01-04 14:50:41,"youtube.com"
"270",2021-01-04 14:45:57,"youtube.com"
"271",2021-01-04 14:45:57,"youtube.com"
"272",2021-01-04 14:42:39,"google.com"
"273",2021-01-04 14:41:50,"youtube.com"
"274",2021-01-04 14:37:25,"youtube.com"
"275",2021-01-04 14:35:49,"youtube.com"
"276",2021-01-04 14:35:49,"youtube.com"
"277",2021-01-04 14:35:48,"youtube.com"
"278",2021-01-04 14:35:37,"youtube.com"
"279",2021-01-04 14:33:28,"youtube.com"
"280",2021-01-04 14:33:27,"youtube.com"
"281",2021-01-04 14:33:25,"youtube.com"
"282",2021-01-04 14:33:25,"youtube.com"
"283",2021-01-04 14:33:13,"youtube.com"
"284",2021-01-04 14:23:50,"google.com"
"285",2021-01-04 14:23:50,"google.com"
"286",2021-01-04 14:22:52,"google.com"
"287",2021-01-04 14:22:49,"google.com"
"288",2021-01-04 14:22:36,"google.com"
"289",2021-01-04 14:22:35,"google.com"
"290",2021-01-04 14:20:33,"facebook.com"
"291",2021-01-04 14:20:33,"facebook.com"
"292",2021-01-04 14:20:32,"facebook.com"
"293",2021-01-04 14:20:32,"facebook.com"
"294",2021-01-04 14:20:28,"facebook.com"
"295",2021-01-04 14:20:28,"facebook.com"
"296",2021-01-04 14:17:33,"google.com"
"297",2021-01-04 13:12:51,"youtube.com"
"298",2021-01-04 12:50:00,"google.com"
"299",2021-01-04 12:49:33,"google.com"
"300",2021-01-04 12:49:32,"google.com"
"301",2021-01-04 12:49:22,"google.com"
"302",2021-01-04 12:31:33,"pw.edu.pl"
"303",2021-01-04 12:31:26,"pw.edu.pl"
"304",2021-01-04 12:31:24,"pw.edu.pl"
"305",2021-01-04 12:31:21,"google.com"
"306",2021-01-04 12:31:12,"google.com"
"307",2021-01-04 12:31:06,"google.com"
"308",2021-01-04 12:30:58,"pw.edu.pl"
"309",2021-01-04 12:30:55,"google.com"
"310",2021-01-04 12:30:52,"google.com"
"311",2021-01-04 12:30:46,"google.com"
"312",2021-01-04 12:30:31,"google.com"
"313",2021-01-04 12:30:09,"google.com"
"314",2021-01-04 12:30:08,"google.com"
"315",2021-01-04 12:29:57,"google.com"
"316",2021-01-04 12:29:54,"google.com"
"317",2021-01-04 12:29:49,"google.com"
"318",2021-01-04 12:25:30,"google.com"
"319",2021-01-04 12:25:23,"google.com"
"320",2021-01-04 01:33:32,"google.com"
"321",2021-01-04 01:33:30,"google.com"
"322",2021-01-03 20:09:05,"youtube.com"
"323",2021-01-03 20:09:05,"youtube.com"
"324",2021-01-03 19:52:07,"youtube.com"
"325",2021-01-03 19:52:07,"youtube.com"
"326",2021-01-03 19:52:05,"youtube.com"
"327",2021-01-03 19:51:53,"youtube.com"
"328",2021-01-03 18:54:52,"google.com"
"329",2021-01-03 18:54:15,"google.com"
"330",2021-01-03 18:53:54,"google.com"
"331",2021-01-03 18:53:53,"google.com"
"332",2021-01-03 18:49:29,"google.com"
"333",2021-01-03 18:16:38,"google.com"
"334",2021-01-03 17:01:56,"google.com"
"335",2021-01-03 14:06:37,"google.com"
"336",2021-01-03 14:01:05,"youtube.com"
"337",2021-01-03 14:01:02,"youtube.com"
"338",2021-01-03 14:01:02,"youtube.com"
"339",2021-01-03 14:00:50,"youtube.com"
"340",2021-01-03 13:52:17,"youtube.com"
"341",2021-01-03 13:52:17,"youtube.com"
"342",2021-01-03 13:47:55,"youtube.com"
"343",2021-01-03 13:47:55,"youtube.com"
"344",2021-01-03 13:47:50,"youtube.com"
"345",2021-01-03 13:47:21,"youtube.com"
"346",2021-01-03 13:43:11,"youtube.com"
"347",2021-01-03 13:42:53,"youtube.com"
"348",2021-01-03 13:42:49,"youtube.com"
"349",2021-01-03 13:42:39,"youtube.com"
"350",2021-01-03 13:34:12,"google.com"
"351",2021-01-03 13:31:55,"youtube.com"
"352",2021-01-03 13:31:22,"youtube.com"
"353",2021-01-03 13:31:22,"youtube.com"
"354",2021-01-03 13:31:18,"youtube.com"
"355",2021-01-03 13:29:30,"youtube.com"
"356",2021-01-03 13:29:30,"youtube.com"
"357",2021-01-03 13:28:51,"youtube.com"
"358",2021-01-03 13:26:46,"wikipedia.org"
"359",2021-01-03 13:26:42,"google.com"
"360",2021-01-03 13:15:04,"youtube.com"
"361",2021-01-03 13:02:03,"google.com"
"362",2021-01-03 13:01:55,"google.com"
"363",2021-01-03 13:01:40,"google.com"
"364",2021-01-03 13:00:19,"google.com"
"365",2021-01-03 12:55:31,"google.com"
"366",2021-01-03 12:49:13,"google.com"
"367",2021-01-03 12:48:50,"google.com"
"368",2021-01-03 12:48:24,"google.com"
"369",2021-01-03 12:43:20,"google.com"
"370",2021-01-03 12:42:55,"youtube.com"
"371",2021-01-03 12:42:38,"youtube.com"
"372",2021-01-03 12:42:35,"google.com"
"373",2021-01-03 12:42:09,"google.com"
"374",2021-01-03 12:40:05,"google.com"
"375",2021-01-03 12:39:03,"google.com"
"376",2021-01-03 12:38:35,"google.com"
"377",2021-01-03 12:30:59,"google.com"
"378",2021-01-03 12:26:19,"google.com"
"379",2021-01-03 12:26:16,"google.com"
"380",2021-01-03 12:25:34,"google.com"
"381",2021-01-03 12:24:55,"google.com"
"382",2021-01-03 12:24:38,"google.com"
"383",2021-01-03 12:04:58,"google.com"
"384",2021-01-03 12:04:13,"google.com"
"385",2021-01-03 01:32:10,"facebook.com"
"386",2021-01-02 23:50:57,"facebook.com"
"387",2021-01-02 23:50:57,"facebook.com"
"388",2021-01-02 22:34:44,"google.com"
"389",2021-01-02 21:33:19,"youtube.com"
"390",2021-01-02 21:28:33,"youtube.com"
"391",2021-01-02 21:27:26,"youtube.com"
"392",2021-01-02 21:27:22,"youtube.com"
"393",2021-01-02 21:27:22,"youtube.com"
"394",2021-01-02 21:27:08,"youtube.com"
"395",2021-01-02 16:00:01,"google.com"
"396",2021-01-02 10:44:30,"google.com"
"397",2021-01-02 00:19:58,"google.com"
"398",2021-01-02 00:19:47,"google.com"
"399",2021-01-01 23:35:51,"google.com"
"400",2021-01-01 23:14:18,"google.com"
"401",2021-01-01 23:13:18,"google.com"
"402",2021-01-01 22:18:58,"google.com"
"403",2021-01-01 22:14:35,"google.com"
"404",2021-01-01 19:47:57,"google.com"
"405",2021-01-01 19:45:20,"google.com"
"406",2021-01-01 19:45:17,"google.com"
"407",2021-01-01 19:39:07,"google.com"
"408",2021-01-01 19:38:59,"google.com"
"409",2021-01-01 19:38:45,"google.com"
"410",2021-01-01 19:38:42,"google.com"
"411",2021-01-01 19:38:40,"google.com"
"412",2021-01-01 19:38:36,"google.com"
"413",2021-01-01 19:38:22,"google.com"
"414",2021-01-01 16:05:04,"google.com"
"415",2021-01-01 13:18:45,"google.com"
"416",2021-01-01 13:18:44,"google.com"
"417",2021-01-01 13:18:42,"google.com"
"418",2021-01-01 13:18:33,"google.com"
"419",2021-01-01 13:18:24,"google.com"
"420",2021-01-01 13:18:19,"google.com"
"421",2021-01-01 13:18:11,"google.com"
"422",2021-01-01 13:18:08,"google.com"
"423",2021-01-01 12:32:59,"google.com"
"424",2021-01-01 10:57:09,"google.com"
"425",2021-01-01 10:57:07,"google.com"
"426",2021-01-01 03:09:53,"google.com"
"427",2020-12-31 23:02:08,"google.com"
"428",2020-12-31 23:02:06,"google.com"
"429",2020-12-31 21:32:04,"google.com"
"430",2020-12-31 18:37:07,"google.com"
"431",2020-12-31 18:36:58,"google.com"
"432",2020-12-31 14:45:58,"youtube.com"
"433",2020-12-31 14:45:47,"youtube.com"
"434",2020-12-31 14:45:47,"youtube.com"
"435",2020-12-31 14:45:37,"youtube.com"
"436",2020-12-31 14:38:32,"google.com"
"437",2020-12-31 14:38:02,"google.com"
"438",2020-12-31 14:37:21,"google.com"
"439",2020-12-31 14:36:56,"google.com"
"440",2020-12-31 14:36:22,"google.com"
"441",2020-12-31 14:36:17,"google.com"
"442",2020-12-31 14:27:00,"google.com"
"443",2020-12-31 12:47:07,"google.com"
"444",2020-12-31 12:46:10,"google.com"
"445",2020-12-31 12:45:52,"google.com"
"446",2020-12-31 12:45:41,"google.com"
"447",2020-12-31 12:45:40,"google.com"
"448",2020-12-31 12:45:20,"google.com"
"449",2020-12-31 12:45:15,"google.com"
"450",2020-12-31 10:23:28,"google.com"
"451",2020-12-31 10:22:16,"google.com"
"452",2020-12-31 10:22:13,"google.com"
"453",2020-12-30 14:41:52,"google.com"
"454",2020-12-30 14:41:35,"google.com"
"455",2020-12-30 14:29:52,"google.com"
"456",2020-12-30 14:28:32,"google.com"
"457",2020-12-30 14:28:24,"google.com"
"458",2020-12-30 00:09:40,"google.com"
"459",2020-12-30 00:09:37,"google.com"
"460",2020-12-30 00:09:28,"google.com"
"461",2020-12-29 23:53:23,"google.com"
"462",2020-12-29 23:50:09,"google.com"
"463",2020-12-29 22:42:01,"google.com"
"464",2020-12-29 21:34:00,"google.com"
"465",2020-12-29 21:33:59,"google.com"
"466",2020-12-29 21:33:50,"google.com"
"467",2020-12-29 20:48:49,"google.com"
"468",2020-12-29 20:48:40,"google.com"
"469",2020-12-29 20:28:22,"youtube.com"
"470",2020-12-29 20:28:22,"youtube.com"
"471",2020-12-29 20:28:15,"youtube.com"
"472",2020-12-29 17:36:22,"google.com"
"473",2020-12-29 17:36:21,"google.com"
"474",2020-12-29 17:36:18,"google.com"
"475",2020-12-29 17:36:16,"google.com"
"476",2020-12-29 17:35:59,"google.com"
"477",2020-12-29 17:35:56,"google.com"
"478",2020-12-29 15:52:45,"google.com"
"479",2020-12-29 14:38:28,"google.com"
"480",2020-12-29 14:38:24,"google.com"
"481",2020-12-29 14:37:56,"google.com"
"482",2020-12-29 14:37:55,"google.com"
"483",2020-12-29 14:37:31,"google.com"
"484",2020-12-29 14:13:22,"google.com"
"485",2020-12-29 14:05:05,"google.com"
"486",2020-12-29 12:52:40,"google.com"
"487",2020-12-29 12:49:35,"google.com"
"488",2020-12-29 12:49:31,"google.com"
"489",2020-12-29 12:49:29,"google.com"
"490",2020-12-29 12:49:22,"google.com"
"491",2020-12-28 21:48:40,"google.com"
"492",2020-12-28 21:41:26,"youtube.com"
"493",2020-12-28 21:41:19,"pw.edu.pl"
"494",2020-12-28 21:38:36,"pw.edu.pl"
"495",2020-12-28 21:38:21,"pw.edu.pl"
"496",2020-12-28 21:33:45,"pw.edu.pl"
"497",2020-12-28 21:33:30,"pw.edu.pl"
"498",2020-12-28 20:07:40,"pw.edu.pl"
"499",2020-12-28 20:07:38,"pw.edu.pl"
"500",2020-12-28 20:06:52,"pw.edu.pl"
"501",2020-12-28 20:06:12,"pw.edu.pl"
"502",2020-12-28 20:06:03,"pw.edu.pl"
"503",2020-12-28 19:46:36,"google.com"
"504",2020-12-28 18:44:14,"google.com"
"505",2020-12-28 18:44:04,"google.com"
"506",2020-12-28 16:08:41,"youtube.com"
"507",2020-12-28 16:08:41,"youtube.com"
"508",2020-12-28 16:04:31,"youtube.com"
"509",2020-12-28 16:03:27,"youtube.com"
"510",2020-12-28 16:00:22,"youtube.com"
"511",2020-12-28 16:00:22,"youtube.com"
"512",2020-12-28 16:00:09,"youtube.com"
"513",2020-12-28 15:57:48,"youtube.com"
"514",2020-12-28 15:57:46,"youtube.com"
"515",2020-12-28 15:57:46,"youtube.com"
"516",2020-12-28 15:56:56,"youtube.com"
"517",2020-12-28 15:56:56,"youtube.com"
"518",2020-12-28 15:56:54,"youtube.com"
"519",2020-12-28 15:56:49,"youtube.com"
"520",2020-12-28 15:45:40,"google.com"
"521",2020-12-28 15:45:34,"google.com"
"522",2020-12-28 15:45:27,"google.com"
"523",2020-12-28 15:45:23,"google.com"
"524",2020-12-28 15:45:21,"google.com"
"525",2020-12-28 15:45:12,"google.com"
"526",2020-12-28 15:45:02,"google.com"
"527",2020-12-28 15:44:36,"google.com"
"528",2020-12-28 15:44:23,"google.com"
"529",2020-12-28 15:44:10,"google.com"
"530",2020-12-28 15:43:44,"google.com"
"531",2020-12-28 15:43:40,"google.com"
"532",2020-12-28 15:43:32,"google.com"
"533",2020-12-28 15:43:19,"google.com"
"534",2020-12-28 15:43:17,"google.com"
"535",2020-12-28 15:43:14,"google.com"
"536",2020-12-28 15:43:03,"google.com"
"537",2020-12-28 15:43:00,"google.com"
"538",2020-12-28 15:42:54,"google.com"
"539",2020-12-28 15:42:46,"google.com"
"540",2020-12-28 15:41:03,"google.com"
"541",2020-12-28 15:40:59,"google.com"
"542",2020-12-28 15:40:55,"google.com"
"543",2020-12-28 13:03:40,"google.com"
"544",2020-12-28 12:31:04,"google.com"
"545",2020-12-28 12:25:51,"google.com"
"546",2020-12-28 12:25:48,"google.com"
"547",2020-12-27 23:09:08,"google.com"
"548",2020-12-27 23:08:29,"google.com"
"549",2020-12-27 23:08:29,"google.com"
"550",2020-12-27 23:08:13,"google.com"
"551",2020-12-27 21:38:58,"youtube.com"
"552",2020-12-27 21:36:33,"youtube.com"
"553",2020-12-27 21:35:51,"youtube.com"
"554",2020-12-27 21:35:51,"youtube.com"
"555",2020-12-27 21:35:08,"youtube.com"
"556",2020-12-27 19:24:56,"google.com"
"557",2020-12-27 19:24:26,"google.com"
"558",2020-12-27 19:16:14,"youtube.com"
"559",2020-12-27 19:16:12,"google.com"
"560",2020-12-27 16:52:10,"google.com"
"561",2020-12-27 16:50:51,"google.com"
"562",2020-12-27 14:41:07,"youtube.com"
"563",2020-12-27 14:41:07,"youtube.com"
"564",2020-12-27 14:40:59,"youtube.com"
"565",2020-12-27 13:37:21,"youtube.com"
"566",2020-12-27 13:36:23,"google.com"
"567",2020-12-27 13:35:33,"google.com"
"568",2020-12-27 13:35:24,"google.com"
"569",2020-12-27 13:34:43,"youtube.com"
"570",2020-12-27 13:33:43,"youtube.com"
"571",2020-12-27 13:33:36,"youtube.com"
"572",2020-12-27 13:32:42,"youtube.com"
"573",2020-12-27 13:32:41,"youtube.com"
"574",2020-12-27 13:32:28,"youtube.com"
"575",2020-12-27 13:25:16,"google.com"
"576",2020-12-27 13:19:28,"google.com"
"577",2020-12-27 13:16:23,"google.com"
"578",2020-12-27 13:16:11,"google.com"
"579",2020-12-27 13:02:22,"google.com"
"580",2020-12-27 13:02:20,"google.com"
"581",2020-12-27 13:01:59,"google.com"
"582",2020-12-27 13:01:55,"google.com"
"583",2020-12-27 11:51:36,"google.com"
"584",2020-12-27 11:24:06,"google.com"
"585",2020-12-27 11:23:56,"google.com"
"586",2020-12-27 10:41:00,"google.com"
"587",2020-12-27 10:40:58,"google.com"
"588",2020-12-27 10:40:51,"google.com"
"589",2020-12-27 10:40:49,"google.com"
"590",2020-12-26 23:46:54,"google.com"
"591",2020-12-26 23:45:52,"google.com"
"592",2020-12-26 21:43:42,"google.com"
"593",2020-12-26 21:43:36,"google.com"
"594",2020-12-26 21:43:36,"google.com"
"595",2020-12-26 21:42:22,"google.com"
"596",2020-12-26 21:42:18,"google.com"
"597",2020-12-26 21:42:01,"google.com"
"598",2020-12-26 21:41:43,"google.com"
"599",2020-12-26 21:41:15,"google.com"
"600",2020-12-26 21:40:37,"google.com"
"601",2020-12-26 21:40:31,"google.com"
"602",2020-12-26 21:28:33,"google.com"
"603",2020-12-26 21:27:12,"google.com"
"604",2020-12-26 21:26:40,"google.com"
"605",2020-12-26 21:07:13,"google.com"
"606",2020-12-26 21:06:51,"google.com"
"607",2020-12-26 17:13:48,"google.com"
"608",2020-12-26 16:40:53,"google.com"
"609",2020-12-26 16:40:38,"google.com"
"610",2020-12-26 16:24:34,"google.com"
"611",2020-12-26 15:19:40,"google.com"
"612",2020-12-26 15:19:38,"google.com"
"613",2020-12-26 12:52:27,"google.com"
"614",2020-12-25 22:16:41,"google.com"
"615",2020-12-25 22:16:40,"google.com"
"616",2020-12-25 22:16:23,"google.com"
"617",2020-12-25 22:16:14,"google.com"
"618",2020-12-25 21:25:56,"google.com"
"619",2020-12-25 21:25:54,"google.com"
"620",2020-12-25 21:25:22,"google.com"
"621",2020-12-25 21:22:36,"google.com"
"622",2020-12-25 21:22:36,"google.com"
"623",2020-12-25 21:22:31,"google.com"
"624",2020-12-25 21:22:26,"google.com"
"625",2020-12-25 21:20:19,"google.com"
"626",2020-12-25 10:04:36,"google.com"
"627",2020-12-25 09:55:40,"google.com"
"628",2020-12-25 09:55:37,"google.com"
"629",2020-12-24 22:16:08,"google.com"
"630",2020-12-24 21:02:13,"google.com"
"631",2020-12-24 21:02:11,"google.com"
"632",2020-12-24 21:01:57,"google.com"
"633",2020-12-24 21:01:54,"google.com"
"634",2020-12-24 20:33:55,"google.com"
"635",2020-12-24 20:33:48,"google.com"
"636",2020-12-24 18:31:44,"google.com"
"637",2020-12-24 17:06:38,"google.com"
"638",2020-12-24 17:06:36,"google.com"
"639",2020-12-24 14:43:30,"google.com"
"640",2020-12-24 14:37:51,"google.com"
"641",2020-12-24 12:50:44,"google.com"
"642",2020-12-24 12:50:35,"google.com"
"643",2020-12-24 12:50:32,"google.com"
"644",2020-12-23 22:41:50,"youtube.com"
"645",2020-12-23 22:41:46,"youtube.com"
"646",2020-12-23 22:35:25,"youtube.com"
"647",2020-12-23 21:50:50,"google.com"
"648",2020-12-23 19:54:28,"google.com"
"649",2020-12-23 19:53:58,"google.com"
"650",2020-12-23 19:53:54,"google.com"
"651",2020-12-23 19:53:48,"google.com"
"652",2020-12-23 19:40:13,"google.com"
"653",2020-12-23 18:47:07,"google.com"
"654",2020-12-23 15:46:13,"google.com"
"655",2020-12-23 15:46:03,"google.com"
"656",2020-12-23 14:02:24,"google.com"
"657",2020-12-23 11:05:35,"google.com"
"658",2020-12-23 11:05:19,"google.com"
"659",2020-12-23 11:05:02,"google.com"
"660",2020-12-23 10:50:06,"google.com"
"661",2020-12-22 19:54:22,"google.com"
"662",2020-12-22 18:03:33,"google.com"
"663",2020-12-22 17:40:56,"google.com"
"664",2020-12-22 17:26:55,"google.com"
"665",2020-12-22 17:07:05,"google.com"
"666",2020-12-22 11:15:03,"google.com"
"667",2020-12-22 11:04:27,"google.com"
"668",2020-12-22 11:04:23,"google.com"
"669",2020-12-22 11:04:17,"google.com"
"670",2020-12-22 11:04:06,"google.com"
"671",2020-12-22 10:26:43,"google.com"
"672",2020-12-22 10:26:31,"google.com"
"673",2020-12-22 10:26:14,"google.com"
"674",2020-12-22 10:26:04,"google.com"
"675",2020-12-22 10:25:57,"google.com"
"676",2020-12-22 00:53:47,"google.com"
"677",2020-12-22 00:50:19,"google.com"
"678",2020-12-21 16:16:40,"youtube.com"
"679",2020-12-21 16:12:50,"google.com"
"680",2020-12-21 16:11:16,"google.com"
"681",2020-12-21 16:11:15,"google.com"
"682",2020-12-21 16:11:10,"google.com"
"683",2020-12-21 16:11:00,"google.com"
"684",2020-12-21 16:09:56,"google.com"
"685",2020-12-21 16:09:44,"google.com"
"686",2020-12-21 13:42:22,"google.com"
"687",2020-12-21 13:42:15,"google.com"
"688",2020-12-21 11:03:03,"wikipedia.org"
"689",2020-12-21 11:02:59,"wikipedia.org"
"690",2020-12-21 11:02:53,"wikipedia.org"
"691",2020-12-21 11:02:51,"google.com"
"692",2020-12-21 11:02:51,"google.com"
"693",2020-12-21 10:39:58,"youtube.com"
"694",2020-12-21 10:39:53,"youtube.com"
"695",2020-12-21 10:39:46,"youtube.com"
"696",2020-12-21 10:39:46,"youtube.com"
"697",2020-12-21 10:38:56,"youtube.com"
"698",2020-12-21 10:38:50,"youtube.com"
"699",2020-12-21 10:38:37,"youtube.com"
"700",2020-12-21 10:27:38,"youtube.com"
"701",2020-12-21 10:27:33,"youtube.com"
"702",2020-12-21 10:27:03,"youtube.com"
"703",2020-12-21 10:25:52,"youtube.com"
"704",2020-12-21 10:25:44,"youtube.com"
"705",2020-12-21 10:25:31,"youtube.com"
"706",2020-12-21 10:25:15,"youtube.com"
"707",2020-12-21 10:25:15,"youtube.com"
"708",2020-12-21 10:25:04,"youtube.com"
"709",2020-12-21 10:23:01,"google.com"
"710",2020-12-21 10:23:00,"google.com"
"711",2020-12-21 10:22:58,"google.com"
"712",2020-12-21 10:22:38,"google.com"
"713",2020-12-21 10:22:28,"google.com"
"714",2020-12-21 10:22:25,"google.com"
"715",2020-12-21 10:22:23,"google.com"
"716",2020-12-21 10:18:44,"google.com"
"717",2020-12-20 19:34:21,"google.com"
"718",2020-12-20 19:32:54,"google.com"
"719",2020-12-20 19:32:24,"google.com"
"720",2020-12-20 15:32:02,"google.com"
"721",2020-12-20 15:32:00,"google.com"
"722",2020-12-20 15:29:08,"google.com"
"723",2020-12-20 15:28:29,"google.com"
"724",2020-12-20 15:26:37,"google.com"
"725",2020-12-20 15:26:35,"google.com"
"726",2020-12-20 15:25:18,"google.com"
"727",2020-12-20 15:25:12,"google.com"
"728",2020-12-20 15:23:38,"google.com"
"729",2020-12-20 15:23:34,"google.com"
"730",2020-12-20 15:23:15,"google.com"
"731",2020-12-20 15:21:22,"google.com"
"732",2020-12-20 15:20:49,"google.com"
"733",2020-12-20 15:20:46,"google.com"
"734",2020-12-20 15:20:43,"google.com"
"735",2020-12-20 15:20:40,"google.com"
"736",2020-12-20 15:19:35,"google.com"
"737",2020-12-20 15:19:32,"google.com"
"738",2020-12-20 15:18:59,"google.com"
"739",2020-12-20 15:18:56,"google.com"
"740",2020-12-20 15:15:16,"google.com"
"741",2020-12-20 15:14:54,"google.com"
"742",2020-12-20 15:14:51,"google.com"
"743",2020-12-20 15:02:42,"google.com"
"744",2020-12-20 13:21:29,"google.com"
"745",2020-12-20 12:56:47,"google.com"
"746",2020-12-20 12:13:43,"google.com"
"747",2020-12-20 12:13:25,"google.com"
"748",2020-12-19 19:42:26,"google.com"
"749",2020-12-19 19:41:34,"google.com"
"750",2020-12-19 19:41:31,"google.com"
"751",2020-12-19 19:41:27,"google.com"
"752",2020-12-19 19:41:22,"google.com"
"753",2020-12-19 18:40:02,"google.com"
"754",2020-12-19 18:40:01,"google.com"
"755",2020-12-19 18:39:50,"google.com"
"756",2020-12-19 17:48:24,"google.com"
"757",2020-12-19 17:47:15,"google.com"
"758",2020-12-19 17:47:08,"google.com"
"759",2020-12-19 17:47:00,"google.com"
"760",2020-12-19 17:41:30,"google.com"
"761",2020-12-19 17:35:29,"google.com"
"762",2020-12-19 17:31:49,"google.com"
"763",2020-12-19 17:20:25,"google.com"
"764",2020-12-19 17:19:55,"google.com"
"765",2020-12-19 17:11:02,"google.com"
"766",2020-12-19 17:03:38,"google.com"
"767",2020-12-19 17:03:22,"google.com"
"768",2020-12-19 17:01:55,"google.com"
"769",2020-12-19 17:00:41,"google.com"
"770",2020-12-19 16:59:30,"google.com"
"771",2020-12-19 16:59:27,"google.com"
"772",2020-12-19 16:57:19,"google.com"
"773",2020-12-19 16:41:36,"google.com"
"774",2020-12-19 14:09:52,"google.com"
"775",2020-12-19 12:24:25,"youtube.com"
"776",2020-12-19 12:21:30,"google.com"
"777",2020-12-19 12:21:28,"google.com"
"778",2020-12-19 12:21:26,"google.com"
"779",2020-12-19 12:21:25,"google.com"
"780",2020-12-19 12:21:24,"google.com"
"781",2020-12-19 12:21:18,"google.com"
"782",2020-12-19 12:21:17,"google.com"
"783",2020-12-19 12:21:11,"google.com"
"784",2020-12-19 12:21:11,"google.com"
"785",2020-12-19 12:21:10,"google.com"
"786",2020-12-19 12:21:09,"google.com"
"787",2020-12-19 12:21:08,"google.com"
"788",2020-12-19 12:21:03,"google.com"
"789",2020-12-19 12:20:58,"google.com"
"790",2020-12-19 12:20:57,"google.com"
"791",2020-12-19 12:20:56,"google.com"
"792",2020-12-19 12:20:55,"google.com"
"793",2020-12-19 12:20:54,"google.com"
"794",2020-12-19 12:20:54,"google.com"
"795",2020-12-19 12:20:53,"google.com"
"796",2020-12-19 12:20:30,"google.com"
"797",2020-12-19 12:20:29,"google.com"
"798",2020-12-19 12:20:22,"google.com"
"799",2020-12-19 12:20:16,"google.com"
"800",2020-12-19 12:16:58,"youtube.com"
"801",2020-12-19 12:15:02,"youtube.com"
"802",2020-12-19 12:15:02,"youtube.com"
"803",2020-12-19 12:14:22,"youtube.com"
"804",2020-12-19 12:13:20,"youtube.com"
"805",2020-12-19 12:10:36,"youtube.com"
"806",2020-12-19 12:09:06,"youtube.com"
"807",2020-12-19 12:09:06,"youtube.com"
"808",2020-12-19 12:07:56,"youtube.com"
"809",2020-12-19 12:07:11,"youtube.com"
"810",2020-12-19 12:07:09,"youtube.com"
"811",2020-12-19 12:06:43,"youtube.com"
"812",2020-12-19 12:06:43,"youtube.com"
"813",2020-12-19 12:06:19,"youtube.com"
"814",2020-12-19 10:50:00,"google.com"
"815",2020-12-19 00:18:28,"google.com"
"816",2020-12-18 23:57:41,"google.com"
"817",2020-12-18 23:57:39,"google.com"
"818",2020-12-18 23:57:36,"google.com"
"819",2020-12-18 23:57:22,"google.com"
"820",2020-12-18 23:57:11,"google.com"
"821",2020-12-18 23:57:07,"google.com"
"822",2020-12-18 23:56:59,"google.com"
"823",2020-12-18 23:56:51,"google.com"
"824",2020-12-18 23:56:38,"google.com"
"825",2020-12-18 23:56:29,"google.com"
"826",2020-12-18 23:56:10,"google.com"
"827",2020-12-18 23:50:23,"google.com"
"828",2020-12-18 23:45:55,"youtube.com"
"829",2020-12-18 23:40:53,"pw.edu.pl"
"830",2020-12-18 23:40:36,"pw.edu.pl"
"831",2020-12-18 23:40:35,"pw.edu.pl"
"832",2020-12-18 23:40:31,"pw.edu.pl"
"833",2020-12-18 21:45:06,"youtube.com"
"834",2020-12-18 21:19:25,"google.com"
"835",2020-12-18 21:15:38,"facebook.com"
"836",2020-12-18 21:15:38,"facebook.com"
"837",2020-12-18 21:15:35,"facebook.com"
"838",2020-12-18 21:15:35,"facebook.com"
"839",2020-12-18 21:07:16,"google.com"
"840",2020-12-18 20:46:30,"youtube.com"
"841",2020-12-18 20:43:43,"youtube.com"
"842",2020-12-18 20:41:51,"youtube.com"
"843",2020-12-18 20:41:51,"youtube.com"
"844",2020-12-18 20:41:50,"youtube.com"
"845",2020-12-18 20:41:24,"youtube.com"
"846",2020-12-18 20:37:41,"google.com"
"847",2020-12-18 20:34:42,"google.com"
"848",2020-12-18 20:33:20,"youtube.com"
"849",2020-12-18 20:32:23,"youtube.com"
"850",2020-12-18 20:32:06,"youtube.com"
"851",2020-12-18 20:01:35,"youtube.com"
"852",2020-12-18 20:01:35,"youtube.com"
"853",2020-12-18 19:51:41,"google.com"
"854",2020-12-18 19:46:08,"youtube.com"
"855",2020-12-18 19:46:08,"youtube.com"
"856",2020-12-18 19:46:07,"youtube.com"
"857",2020-12-18 19:46:01,"youtube.com"
"858",2020-12-18 19:45:57,"youtube.com"
"859",2020-12-18 19:45:50,"youtube.com"
"860",2020-12-18 19:43:38,"youtube.com"
"861",2020-12-18 18:12:20,"google.com"
"862",2020-12-18 13:40:44,"google.com"
"863",2020-12-18 13:38:26,"google.com"
"864",2020-12-18 13:38:23,"google.com"
"865",2020-12-18 11:23:33,"youtube.com"
"866",2020-12-18 10:53:04,"youtube.com"
"867",2020-12-18 10:53:04,"youtube.com"
"868",2020-12-18 10:48:55,"youtube.com"
"869",2020-12-18 10:24:43,"youtube.com"
"870",2020-12-18 10:08:33,"youtube.com"
"871",2020-12-18 10:08:33,"youtube.com"
"872",2020-12-18 10:08:24,"youtube.com"
"873",2020-12-18 08:56:24,"google.com"
"874",2020-12-18 08:14:20,"google.com"
"875",2020-12-18 08:14:12,"google.com"
"876",2020-12-18 08:13:47,"google.com"
"877",2020-12-18 08:13:36,"google.com"
"878",2020-12-17 18:08:59,"youtube.com"
"879",2020-12-17 18:08:59,"youtube.com"
"880",2020-12-17 18:07:38,"youtube.com"
"881",2020-12-17 18:07:30,"youtube.com"
"882",2020-12-17 17:59:45,"youtube.com"
"883",2020-12-17 17:59:45,"youtube.com"
"884",2020-12-17 17:59:04,"youtube.com"
"885",2020-12-17 17:59:04,"youtube.com"
"886",2020-12-17 17:59:02,"youtube.com"
"887",2020-12-17 17:58:51,"youtube.com"
"888",2020-12-17 16:47:15,"google.com"
"889",2020-12-17 16:47:10,"google.com"
"890",2020-12-17 16:39:53,"google.com"
"891",2020-12-17 16:39:52,"google.com"
"892",2020-12-17 16:39:47,"google.com"
"893",2020-12-17 16:39:42,"google.com"
"894",2020-12-17 16:31:54,"google.com"
"895",2020-12-17 16:31:43,"google.com"
"896",2020-12-17 16:25:55,"facebook.com"
"897",2020-12-17 16:25:55,"facebook.com"
"898",2020-12-17 16:25:55,"facebook.com"
"899",2020-12-17 16:25:55,"facebook.com"
"900",2020-12-17 16:25:54,"facebook.com"
"901",2020-12-17 16:25:53,"facebook.com"
"902",2020-12-17 16:25:49,"facebook.com"
"903",2020-12-17 16:25:49,"facebook.com"
"904",2020-12-17 16:06:38,"pw.edu.pl"
"905",2020-12-17 16:06:35,"pw.edu.pl"
"906",2020-12-17 16:06:33,"pw.edu.pl"
"907",2020-12-17 16:06:28,"pw.edu.pl"
"908",2020-12-17 15:13:04,"google.com"
"909",2020-12-17 15:12:53,"google.com"
"910",2020-12-17 15:12:32,"google.com"
"911",2020-12-17 15:12:27,"google.com"
"912",2020-12-17 15:11:29,"wikipedia.org"
"913",2020-12-17 15:11:27,"google.com"
"914",2020-12-17 15:09:41,"google.com"
"915",2020-12-17 15:08:26,"google.com"
"916",2020-12-17 15:08:20,"google.com"
"917",2020-12-17 15:07:14,"google.com"
"918",2020-12-17 15:07:10,"google.com"
"919",2020-12-17 15:07:00,"google.com"
"920",2020-12-17 15:04:32,"wikipedia.org"
"921",2020-12-17 15:04:31,"google.com"
"922",2020-12-17 15:03:52,"google.com"
"923",2020-12-17 15:03:39,"wikipedia.org"
"924",2020-12-17 15:03:38,"google.com"
"925",2020-12-17 15:02:23,"wikipedia.org"
"926",2020-12-17 15:02:22,"google.com"
"927",2020-12-17 14:45:25,"youtube.com"
"928",2020-12-17 14:45:25,"youtube.com"
"929",2020-12-17 14:42:44,"google.com"
"930",2020-12-17 14:38:10,"youtube.com"
"931",2020-12-17 14:38:10,"youtube.com"
"932",2020-12-17 14:38:02,"youtube.com"
"933",2020-12-17 14:37:48,"pw.edu.pl"
"934",2020-12-17 14:37:44,"youtube.com"
"935",2020-12-17 13:43:45,"pw.edu.pl"
"936",2020-12-17 13:43:42,"pw.edu.pl"
"937",2020-12-17 13:43:41,"pw.edu.pl"
"938",2020-12-17 13:43:39,"pw.edu.pl"
"939",2020-12-17 13:43:36,"pw.edu.pl"
"940",2020-12-17 13:38:37,"pw.edu.pl"
"941",2020-12-17 13:38:28,"pw.edu.pl"
"942",2020-12-17 13:33:46,"pw.edu.pl"
"943",2020-12-17 13:33:12,"pw.edu.pl"
"944",2020-12-17 13:33:04,"pw.edu.pl"
"945",2020-12-17 13:33:00,"pw.edu.pl"
"946",2020-12-17 13:31:07,"pw.edu.pl"
"947",2020-12-17 13:29:52,"pw.edu.pl"
"948",2020-12-17 13:29:34,"pw.edu.pl"
"949",2020-12-17 13:27:45,"pw.edu.pl"
"950",2020-12-17 13:26:08,"pw.edu.pl"
"951",2020-12-17 13:25:31,"pw.edu.pl"
"952",2020-12-17 13:23:40,"pw.edu.pl"
"953",2020-12-17 13:23:37,"pw.edu.pl"
"954",2020-12-17 13:14:46,"pw.edu.pl"
"955",2020-12-17 13:14:44,"pw.edu.pl"
"956",2020-12-17 13:13:28,"pw.edu.pl"
"957",2020-12-17 13:13:24,"pw.edu.pl"
"958",2020-12-17 13:13:16,"pw.edu.pl"
"959",2020-12-17 11:22:59,"google.com"
"960",2020-12-17 11:22:45,"google.com"
"961",2020-12-17 10:48:09,"google.com"
"962",2020-12-17 09:09:16,"facebook.com"
"963",2020-12-17 09:09:12,"facebook.com"
"964",2020-12-17 09:09:03,"facebook.com"
"965",2020-12-17 09:09:01,"facebook.com"
"966",2020-12-17 09:08:55,"facebook.com"
"967",2020-12-17 09:08:47,"facebook.com"
"968",2020-12-17 09:06:31,"facebook.com"
"969",2020-12-17 09:06:31,"facebook.com"
"970",2020-12-17 09:03:42,"pw.edu.pl"
"971",2020-12-17 09:03:40,"pw.edu.pl"
"972",2020-12-17 09:03:39,"pw.edu.pl"
"973",2020-12-17 09:03:37,"pw.edu.pl"
"974",2020-12-17 09:02:51,"facebook.com"
"975",2020-12-17 09:02:45,"facebook.com"
"976",2020-12-17 09:02:37,"facebook.com"
"977",2020-12-17 09:02:36,"facebook.com"
"978",2020-12-17 08:48:08,"youtube.com"
"979",2020-12-17 08:44:26,"youtube.com"
"980",2020-12-17 08:44:10,"youtube.com"
"981",2020-12-17 08:44:10,"youtube.com"
"982",2020-12-17 08:43:46,"youtube.com"
"983",2020-12-17 08:34:35,"youtube.com"
"984",2020-12-17 08:25:04,"facebook.com"
"985",2020-12-17 08:25:00,"facebook.com"
"986",2020-12-17 08:24:54,"facebook.com"
"987",2020-12-17 08:24:52,"facebook.com"
"988",2020-12-16 21:52:14,"facebook.com"
"989",2020-12-16 21:52:14,"facebook.com"
"990",2020-12-16 21:48:31,"google.com"
"991",2020-12-16 18:30:16,"google.com"
"992",2020-12-16 18:30:11,"google.com"
"993",2020-12-16 18:30:10,"google.com"
"994",2020-12-16 18:25:19,"google.com"
"995",2020-12-16 18:24:27,"google.com"
"996",2020-12-16 18:24:14,"google.com"
"997",2020-12-16 18:22:48,"google.com"
"998",2020-12-16 18:22:42,"google.com"
"999",2020-12-16 18:18:12,"pw.edu.pl"
"1000",2020-12-16 18:18:05,"pw.edu.pl"
"1001",2020-12-16 18:16:56,"pw.edu.pl"
"1002",2020-12-16 18:12:50,"pw.edu.pl"
"1003",2020-12-16 18:12:41,"pw.edu.pl"
"1004",2020-12-16 18:12:35,"pw.edu.pl"
"1005",2020-12-16 18:12:31,"pw.edu.pl"
"1006",2020-12-16 18:12:22,"pw.edu.pl"
"1007",2020-12-16 18:12:07,"pw.edu.pl"
"1008",2020-12-16 18:12:02,"pw.edu.pl"
"1009",2020-12-16 18:11:45,"pw.edu.pl"
"1010",2020-12-16 18:10:03,"google.com"
"1011",2020-12-16 18:08:07,"google.com"
"1012",2020-12-16 18:07:47,"google.com"
"1013",2020-12-16 18:07:18,"google.com"
"1014",2020-12-16 17:53:28,"google.com"
"1015",2020-12-16 17:49:22,"google.com"
"1016",2020-12-16 17:49:18,"google.com"
"1017",2020-12-16 17:46:30,"google.com"
"1018",2020-12-16 17:46:13,"google.com"
"1019",2020-12-16 17:46:06,"google.com"
"1020",2020-12-16 17:36:43,"google.com"
"1021",2020-12-16 17:36:37,"google.com"
"1022",2020-12-16 17:33:39,"youtube.com"
"1023",2020-12-16 17:33:39,"youtube.com"
"1024",2020-12-16 17:33:32,"youtube.com"
"1025",2020-12-16 17:29:52,"google.com"
"1026",2020-12-16 17:28:38,"google.com"
"1027",2020-12-16 14:43:37,"google.com"
"1028",2020-12-16 14:42:44,"google.com"
"1029",2020-12-16 14:42:40,"google.com"
"1030",2020-12-16 14:20:05,"youtube.com"
"1031",2020-12-16 14:13:19,"youtube.com"
"1032",2020-12-16 12:50:04,"facebook.com"
"1033",2020-12-16 12:50:04,"facebook.com"
"1034",2020-12-16 12:50:00,"facebook.com"
"1035",2020-12-16 12:49:59,"facebook.com"
"1036",2020-12-16 11:34:35,"google.com"
"1037",2020-12-16 10:42:21,"youtube.com"
"1038",2020-12-16 10:42:21,"youtube.com"
"1039",2020-12-16 10:35:16,"youtube.com"
"1040",2020-12-16 10:35:16,"youtube.com"
"1041",2020-12-16 10:35:08,"youtube.com"
"1042",2020-12-16 10:35:03,"youtube.com"
"1043",2020-12-16 10:34:59,"pw.edu.pl"
"1044",2020-12-16 10:34:36,"pw.edu.pl"
"1045",2020-12-16 10:33:35,"pw.edu.pl"
"1046",2020-12-16 10:33:23,"pw.edu.pl"
"1047",2020-12-16 10:33:18,"pw.edu.pl"
"1048",2020-12-16 10:33:12,"pw.edu.pl"
"1049",2020-12-16 10:33:06,"pw.edu.pl"
"1050",2020-12-16 10:32:58,"pw.edu.pl"
"1051",2020-12-15 23:05:45,"google.com"
"1052",2020-12-15 15:26:14,"youtube.com"
"1053",2020-12-15 15:25:01,"youtube.com"
"1054",2020-12-15 15:24:58,"youtube.com"
"1055",2020-12-15 15:24:58,"youtube.com"
"1056",2020-12-15 15:23:13,"youtube.com"
"1057",2020-12-15 15:23:11,"youtube.com"
"1058",2020-12-15 15:23:07,"youtube.com"
"1059",2020-12-15 15:22:53,"youtube.com"
"1060",2020-12-15 15:22:53,"youtube.com"
"1061",2020-12-15 15:22:48,"youtube.com"
"1062",2020-12-15 15:22:43,"youtube.com"
"1063",2020-12-15 14:52:51,"google.com"
"1064",2020-12-15 14:52:49,"google.com"
"1065",2020-12-15 14:52:39,"google.com"
"1066",2020-12-15 14:51:57,"youtube.com"
"1067",2020-12-15 14:51:43,"google.com"
"1068",2020-12-15 14:51:38,"youtube.com"
"1069",2020-12-15 14:51:32,"google.com"
"1070",2020-12-15 14:51:29,"google.com"
"1071",2020-12-15 14:26:26,"google.com"
"1072",2020-12-15 14:26:17,"google.com"
"1073",2020-12-15 14:26:05,"google.com"
"1074",2020-12-15 14:26:02,"google.com"
"1075",2020-12-15 14:25:23,"google.com"
"1076",2020-12-15 14:25:16,"google.com"
"1077",2020-12-15 14:07:29,"google.com"
"1078",2020-12-15 14:07:23,"google.com"
"1079",2020-12-15 08:46:00,"google.com"
"1080",2020-12-15 00:41:25,"google.com"
"1081",2020-12-15 00:41:06,"google.com"
"1082",2020-12-15 00:39:45,"google.com"
"1083",2020-12-14 22:08:59,"youtube.com"
"1084",2020-12-14 22:08:59,"youtube.com"
"1085",2020-12-14 22:08:53,"youtube.com"
"1086",2020-12-14 22:08:47,"pw.edu.pl"
"1087",2020-12-14 21:39:28,"pw.edu.pl"
"1088",2020-12-14 21:39:19,"pw.edu.pl"
"1089",2020-12-14 21:35:37,"pw.edu.pl"
"1090",2020-12-14 21:35:00,"pw.edu.pl"
"1091",2020-12-14 21:34:57,"pw.edu.pl"
"1092",2020-12-14 21:34:54,"pw.edu.pl"
"1093",2020-12-14 21:34:37,"pw.edu.pl"
"1094",2020-12-14 21:34:30,"pw.edu.pl"
"1095",2020-12-14 21:34:22,"pw.edu.pl"
"1096",2020-12-14 21:33:20,"pw.edu.pl"
"1097",2020-12-14 21:33:13,"pw.edu.pl"
"1098",2020-12-14 21:30:40,"pw.edu.pl"
"1099",2020-12-14 21:30:30,"pw.edu.pl"
"1100",2020-12-14 21:17:54,"wikipedia.org"
"1101",2020-12-14 21:16:13,"google.com"
"1102",2020-12-14 21:16:08,"google.com"
"1103",2020-12-14 21:14:06,"google.com"
"1104",2020-12-14 21:05:37,"google.com"
"1105",2020-12-14 21:05:20,"google.com"
"1106",2020-12-14 21:04:55,"google.com"
"1107",2020-12-14 21:04:38,"google.com"
"1108",2020-12-14 21:03:43,"google.com"
"1109",2020-12-14 20:57:22,"google.com"
"1110",2020-12-14 20:50:54,"google.com"
"1111",2020-12-14 20:44:52,"google.com"
"1112",2020-12-14 20:44:33,"google.com"
"1113",2020-12-14 20:43:22,"google.com"
"1114",2020-12-14 20:43:16,"google.com"
"1115",2020-12-14 20:07:44,"pw.edu.pl"
"1116",2020-12-14 19:59:57,"wikipedia.org"
"1117",2020-12-14 19:59:55,"google.com"
"1118",2020-12-14 19:59:48,"google.com"
"1119",2020-12-14 19:59:40,"google.com"
"1120",2020-12-14 19:59:39,"google.com"
"1121",2020-12-14 19:59:37,"google.com"
"1122",2020-12-14 19:59:29,"google.com"
"1123",2020-12-14 19:55:28,"facebook.com"
"1124",2020-12-14 19:55:28,"facebook.com"
"1125",2020-12-14 19:55:24,"facebook.com"
"1126",2020-12-14 19:55:23,"facebook.com"
"1127",2020-12-14 19:39:42,"google.com"
"1128",2020-12-14 19:38:52,"google.com"
"1129",2020-12-14 19:38:51,"google.com"
"1130",2020-12-14 19:34:23,"google.com"
"1131",2020-12-14 19:29:45,"google.com"
"1132",2020-12-14 19:17:06,"google.com"
"1133",2020-12-14 19:15:34,"google.com"
"1134",2020-12-14 19:15:28,"google.com"
"1135",2020-12-14 19:15:26,"google.com"
"1136",2020-12-14 19:15:00,"google.com"
"1137",2020-12-14 19:14:45,"google.com"
"1138",2020-12-14 19:14:39,"google.com"
"1139",2020-12-14 19:03:12,"google.com"
"1140",2020-12-14 19:02:45,"google.com"
"1141",2020-12-14 19:02:36,"google.com"
"1142",2020-12-14 19:02:30,"google.com"
"1143",2020-12-14 19:02:28,"google.com"
"1144",2020-12-14 19:02:23,"google.com"
"1145",2020-12-14 18:30:25,"youtube.com"
"1146",2020-12-14 18:28:47,"youtube.com"
"1147",2020-12-14 18:28:21,"youtube.com"
"1148",2020-12-14 18:28:19,"youtube.com"
"1149",2020-12-14 18:28:19,"youtube.com"
"1150",2020-12-14 18:27:08,"youtube.com"
"1151",2020-12-14 18:27:05,"youtube.com"
"1152",2020-12-14 18:25:27,"youtube.com"
"1153",2020-12-14 18:25:27,"youtube.com"
"1154",2020-12-14 18:24:47,"youtube.com"
"1155",2020-12-14 18:24:41,"youtube.com"
"1156",2020-12-14 18:24:22,"youtube.com"
"1157",2020-12-14 18:21:02,"youtube.com"
"1158",2020-12-14 18:20:54,"youtube.com"
"1159",2020-12-14 18:15:12,"google.com"
"1160",2020-12-14 18:12:21,"youtube.com"
"1161",2020-12-14 18:12:21,"youtube.com"
"1162",2020-12-14 18:12:16,"google.com"
"1163",2020-12-14 18:12:14,"youtube.com"
"1164",2020-12-14 17:34:49,"google.com"
"1165",2020-12-14 17:33:20,"google.com"
"1166",2020-12-14 17:33:16,"google.com"
"1167",2020-12-14 16:46:54,"google.com"
"1168",2020-12-14 15:57:58,"youtube.com"
"1169",2020-12-14 15:57:58,"youtube.com"
"1170",2020-12-14 15:57:54,"youtube.com"
"1171",2020-12-14 15:56:00,"google.com"
"1172",2020-12-14 15:55:59,"google.com"
"1173",2020-12-14 15:54:08,"google.com"
"1174",2020-12-14 15:53:57,"google.com"
"1175",2020-12-14 15:53:46,"google.com"
"1176",2020-12-14 15:53:09,"google.com"
"1177",2020-12-14 15:48:41,"google.com"
"1178",2020-12-14 15:23:19,"google.com"
"1179",2020-12-14 15:23:16,"google.com"
"1180",2020-12-14 15:10:46,"google.com"
"1181",2020-12-14 14:44:27,"google.com"
"1182",2020-12-14 14:44:08,"youtube.com"
"1183",2020-12-14 14:44:08,"youtube.com"
"1184",2020-12-14 14:43:39,"youtube.com"
"1185",2020-12-14 14:17:01,"youtube.com"
"1186",2020-12-14 14:16:53,"google.com"
"1187",2020-12-14 14:05:21,"google.com"
"1188",2020-12-14 14:05:20,"google.com"
"1189",2020-12-14 13:53:58,"pw.edu.pl"
"1190",2020-12-14 13:53:54,"pw.edu.pl"
"1191",2020-12-14 13:53:49,"pw.edu.pl"
"1192",2020-12-14 13:53:45,"pw.edu.pl"
"1193",2020-12-14 13:52:51,"google.com"
"1194",2020-12-14 13:49:32,"google.com"
"1195",2020-12-14 13:49:19,"google.com"
"1196",2020-12-14 13:49:18,"google.com"
"1197",2020-12-14 13:49:08,"google.com"
"1198",2020-12-14 13:48:02,"wikipedia.org"
"1199",2020-12-14 13:47:53,"google.com"
"1200",2020-12-14 13:37:55,"google.com"
"1201",2020-12-14 13:34:40,"google.com"
"1202",2020-12-14 13:26:42,"google.com"
"1203",2020-12-14 13:12:26,"pw.edu.pl"
"1204",2020-12-14 13:12:23,"pw.edu.pl"
"1205",2020-12-14 13:12:20,"pw.edu.pl"
"1206",2020-12-14 13:10:30,"pw.edu.pl"
"1207",2020-12-14 13:10:26,"pw.edu.pl"
"1208",2020-12-14 13:10:21,"pw.edu.pl"
"1209",2020-12-14 13:09:24,"pw.edu.pl"
"1210",2020-12-14 13:09:19,"pw.edu.pl"
"1211",2020-12-14 13:09:14,"pw.edu.pl"
"1212",2020-12-14 13:09:09,"pw.edu.pl"
"1213",2020-12-14 12:46:29,"facebook.com"
"1214",2020-12-14 12:46:28,"facebook.com"
"1215",2020-12-14 12:39:03,"google.com"
"1216",2020-12-14 12:38:41,"google.com"
"1217",2020-12-14 12:38:35,"google.com"
"1218",2020-12-14 12:32:32,"pw.edu.pl"
"1219",2020-12-14 12:32:17,"pw.edu.pl"
"1220",2020-12-14 12:32:07,"pw.edu.pl"
"1221",2020-12-14 12:32:01,"pw.edu.pl"
"1222",2020-12-14 12:31:51,"pw.edu.pl"
"1223",2020-12-14 12:17:17,"youtube.com"
"1224",2020-12-14 12:17:17,"youtube.com"
"1225",2020-12-14 12:17:12,"youtube.com"
"1226",2020-12-14 12:17:00,"youtube.com"
"1227",2020-12-14 12:16:55,"youtube.com"
"1228",2020-12-14 07:57:31,"google.com"
"1229",2020-12-14 07:57:15,"google.com"
"1230",2020-12-14 02:03:11,"google.com"
"1231",2020-12-14 02:02:35,"google.com"
"1232",2020-12-14 02:02:26,"google.com"
"1233",2020-12-14 00:44:57,"google.com"
"1234",2020-12-14 00:44:51,"google.com"
"1235",2020-12-14 00:44:12,"google.com"
"1236",2020-12-14 00:43:10,"google.com"
"1237",2020-12-14 00:42:41,"google.com"
"1238",2020-12-14 00:42:23,"google.com"
"1239",2020-12-14 00:41:59,"google.com"
"1240",2020-12-14 00:41:36,"google.com"
"1241",2020-12-14 00:41:35,"google.com"
"1242",2020-12-14 00:41:24,"google.com"
"1243",2020-12-14 00:41:19,"google.com"
"1244",2020-12-14 00:41:15,"google.com"
"1245",2020-12-14 00:00:55,"google.com"
"1246",2020-12-13 23:16:16,"pw.edu.pl"
"1247",2020-12-13 23:16:15,"google.com"
"1248",2020-12-13 23:16:07,"pw.edu.pl"
"1249",2020-12-13 23:14:25,"pw.edu.pl"
"1250",2020-12-13 23:14:22,"pw.edu.pl"
"1251",2020-12-13 23:14:17,"pw.edu.pl"
"1252",2020-12-13 21:52:36,"wikipedia.org"
"1253",2020-12-13 21:51:16,"google.com"
"1254",2020-12-13 20:54:27,"youtube.com"
"1255",2020-12-13 20:54:16,"google.com"
"1256",2020-12-13 20:47:54,"google.com"
"1257",2020-12-13 20:47:51,"google.com"
"1258",2020-12-13 20:47:48,"google.com"
"1259",2020-12-13 20:47:32,"google.com"
"1260",2020-12-13 20:47:30,"google.com"
"1261",2020-12-13 20:46:50,"google.com"
"1262",2020-12-13 20:46:48,"google.com"
"1263",2020-12-13 20:46:46,"google.com"
"1264",2020-12-13 20:46:36,"google.com"
"1265",2020-12-13 20:46:04,"google.com"
"1266",2020-12-13 20:46:01,"google.com"
"1267",2020-12-13 20:45:56,"google.com"
"1268",2020-12-13 20:45:46,"google.com"
"1269",2020-12-13 20:45:20,"google.com"
"1270",2020-12-13 20:45:16,"google.com"
"1271",2020-12-13 20:45:13,"google.com"
"1272",2020-12-13 20:45:11,"google.com"
"1273",2020-12-13 20:22:50,"google.com"
"1274",2020-12-13 20:22:43,"google.com"
"1275",2020-12-13 20:22:39,"google.com"
"1276",2020-12-13 20:22:35,"google.com"
"1277",2020-12-13 20:22:31,"google.com"
"1278",2020-12-13 20:22:00,"google.com"
"1279",2020-12-13 20:07:04,"google.com"
"1280",2020-12-13 20:06:36,"google.com"
"1281",2020-12-13 20:06:31,"google.com"
"1282",2020-12-13 20:06:22,"google.com"
"1283",2020-12-13 20:06:10,"google.com"
"1284",2020-12-13 20:06:09,"google.com"
"1285",2020-12-13 20:06:06,"google.com"
"1286",2020-12-13 20:06:00,"google.com"
"1287",2020-12-13 20:05:56,"google.com"
"1288",2020-12-13 20:04:30,"google.com"
"1289",2020-12-13 20:04:26,"google.com"
"1290",2020-12-13 20:04:19,"google.com"
"1291",2020-12-13 20:04:18,"google.com"
"1292",2020-12-13 19:22:30,"youtube.com"
"1293",2020-12-13 19:22:18,"youtube.com"
"1294",2020-12-13 19:22:09,"youtube.com"
"1295",2020-12-13 19:20:17,"youtube.com"
"1296",2020-12-13 19:20:10,"youtube.com"
"1297",2020-12-13 19:19:54,"youtube.com"
"1298",2020-12-13 19:19:35,"youtube.com"
"1299",2020-12-13 19:19:14,"youtube.com"
"1300",2020-12-13 19:19:04,"youtube.com"
"1301",2020-12-13 19:18:06,"youtube.com"
"1302",2020-12-13 19:17:05,"google.com"
"1303",2020-12-13 19:17:01,"google.com"
"1304",2020-12-13 19:16:57,"google.com"
"1305",2020-12-13 19:16:52,"google.com"
"1306",2020-12-13 19:16:44,"google.com"
"1307",2020-12-13 18:48:11,"google.com"
"1308",2020-12-13 18:26:09,"youtube.com"
"1309",2020-12-13 18:26:06,"google.com"
"1310",2020-12-13 18:00:29,"google.com"
"1311",2020-12-13 17:05:20,"google.com"
"1312",2020-12-13 17:04:41,"google.com"
"1313",2020-12-13 16:43:43,"facebook.com"
"1314",2020-12-13 16:43:42,"facebook.com"
"1315",2020-12-13 16:09:12,"wikipedia.org"
"1316",2020-12-13 16:09:10,"google.com"
"1317",2020-12-13 15:56:51,"google.com"
"1318",2020-12-13 15:56:41,"wikipedia.org"
"1319",2020-12-13 15:56:39,"google.com"
"1320",2020-12-13 15:52:00,"google.com"
"1321",2020-12-13 15:51:24,"google.com"
"1322",2020-12-13 15:51:18,"google.com"
"1323",2020-12-13 15:09:08,"youtube.com"
"1324",2020-12-13 15:05:58,"facebook.com"
"1325",2020-12-13 15:05:57,"facebook.com"
"1326",2020-12-13 15:05:46,"facebook.com"
"1327",2020-12-13 15:05:45,"facebook.com"
"1328",2020-12-12 12:36:28,"google.com"
"1329",2020-12-12 12:36:16,"google.com"
"1330",2020-12-12 12:19:46,"pw.edu.pl"
"1331",2020-12-12 12:19:43,"pw.edu.pl"
"1332",2020-12-12 12:19:04,"google.com"
"1333",2020-12-12 12:18:01,"google.com"
"1334",2020-12-12 12:17:57,"google.com"
"1335",2020-12-12 12:17:49,"google.com"
"1336",2020-12-12 12:17:24,"google.com"
"1337",2020-12-12 11:45:18,"google.com"
"1338",2020-12-12 10:51:01,"google.com"
"1339",2020-12-12 10:17:23,"google.com"
"1340",2020-12-12 00:40:55,"google.com"
"1341",2020-12-12 00:40:34,"google.com"
"1342",2020-12-12 00:40:31,"google.com"
"1343",2020-12-11 23:45:26,"google.com"
"1344",2020-12-11 21:51:50,"google.com"
"1345",2020-12-11 21:51:39,"google.com"
"1346",2020-12-11 21:51:36,"google.com"
"1347",2020-12-11 21:25:49,"wikipedia.org"
"1348",2020-12-11 21:25:47,"google.com"
"1349",2020-12-11 20:27:04,"google.com"
"1350",2020-12-11 20:26:59,"wikipedia.org"
"1351",2020-12-11 20:12:41,"google.com"
"1352",2020-12-11 20:12:33,"google.com"
"1353",2020-12-11 20:12:27,"google.com"
"1354",2020-12-11 20:12:17,"google.com"
"1355",2020-12-11 20:12:11,"google.com"
"1356",2020-12-11 20:11:40,"google.com"
"1357",2020-12-11 20:11:24,"google.com"
"1358",2020-12-11 20:08:46,"google.com"
"1359",2020-12-11 20:08:34,"google.com"
"1360",2020-12-11 20:08:25,"google.com"
"1361",2020-12-11 20:08:19,"google.com"
"1362",2020-12-11 20:08:09,"google.com"
"1363",2020-12-11 20:07:27,"wikipedia.org"
"1364",2020-12-11 20:07:20,"wikipedia.org"
"1365",2020-12-11 20:07:16,"google.com"
"1366",2020-12-11 20:07:12,"google.com"
"1367",2020-12-11 19:55:27,"youtube.com"
"1368",2020-12-11 19:31:05,"google.com"
"1369",2020-12-11 19:24:01,"google.com"
"1370",2020-12-11 19:23:48,"google.com"
"1371",2020-12-11 19:23:22,"google.com"
"1372",2020-12-11 19:23:16,"wikipedia.org"
"1373",2020-12-11 19:22:49,"wikipedia.org"
"1374",2020-12-11 19:22:47,"google.com"
"1375",2020-12-11 19:21:34,"wikipedia.org"
"1376",2020-12-11 19:21:33,"google.com"
"1377",2020-12-11 18:35:34,"wikipedia.org"
"1378",2020-12-11 18:35:33,"google.com"
"1379",2020-12-11 18:32:56,"google.com"
"1380",2020-12-11 17:58:28,"pw.edu.pl"
"1381",2020-12-11 17:58:26,"pw.edu.pl"
"1382",2020-12-11 17:58:23,"pw.edu.pl"
"1383",2020-12-11 17:42:13,"google.com"
"1384",2020-12-11 17:33:17,"google.com"
"1385",2020-12-11 17:21:18,"pw.edu.pl"
"1386",2020-12-11 17:21:16,"pw.edu.pl"
"1387",2020-12-11 17:21:15,"pw.edu.pl"
"1388",2020-12-11 17:21:11,"pw.edu.pl"
"1389",2020-12-11 17:18:39,"google.com"
"1390",2020-12-11 17:18:32,"google.com"
"1391",2020-12-11 14:35:42,"google.com"
"1392",2020-12-11 12:50:51,"google.com"
"1393",2020-12-11 10:34:33,"facebook.com"
"1394",2020-12-11 10:34:32,"facebook.com"
"1395",2020-12-11 10:01:53,"youtube.com"
"1396",2020-12-11 09:58:31,"google.com"
"1397",2020-12-11 08:37:29,"google.com"
"1398",2020-12-11 06:09:34,"google.com"
"1399",2020-12-10 22:17:42,"google.com"
"1400",2020-12-10 22:17:37,"google.com"
"1401",2020-12-10 22:17:07,"google.com"
"1402",2020-12-10 22:16:50,"youtube.com"
"1403",2020-12-10 22:16:47,"google.com"
"1404",2020-12-10 20:34:42,"google.com"
"1405",2020-12-10 17:20:39,"youtube.com"
"1406",2020-12-10 17:20:39,"youtube.com"
"1407",2020-12-10 17:20:25,"youtube.com"
"1408",2020-12-10 17:11:15,"google.com"
"1409",2020-12-10 17:11:02,"google.com"
"1410",2020-12-10 17:10:47,"google.com"
"1411",2020-12-10 17:10:43,"google.com"
"1412",2020-12-10 17:05:12,"youtube.com"
"1413",2020-12-10 17:05:01,"youtube.com"
"1414",2020-12-10 16:59:58,"facebook.com"
"1415",2020-12-10 16:59:54,"facebook.com"
"1416",2020-12-10 16:59:36,"facebook.com"
"1417",2020-12-10 16:59:35,"facebook.com"
"1418",2020-12-10 16:24:23,"facebook.com"
"1419",2020-12-10 16:24:22,"facebook.com"
"1420",2020-12-10 16:12:13,"youtube.com"
"1421",2020-12-10 16:12:13,"youtube.com"
"1422",2020-12-10 16:12:08,"youtube.com"
"1423",2020-12-10 15:34:36,"youtube.com"
"1424",2020-12-10 15:34:00,"youtube.com"
"1425",2020-12-10 15:14:20,"google.com"
"1426",2020-12-10 15:13:01,"youtube.com"
"1427",2020-12-10 14:59:39,"pw.edu.pl"
"1428",2020-12-10 14:58:49,"pw.edu.pl"
"1429",2020-12-10 14:57:39,"google.com"
"1430",2020-12-10 14:57:10,"google.com"
"1431",2020-12-10 14:56:11,"google.com"
"1432",2020-12-10 14:54:40,"pw.edu.pl"
"1433",2020-12-10 14:51:55,"facebook.com"
"1434",2020-12-10 14:51:53,"facebook.com"
"1435",2020-12-10 14:51:50,"facebook.com"
"1436",2020-12-10 14:51:42,"pw.edu.pl"
"1437",2020-12-10 14:51:34,"pw.edu.pl"
"1438",2020-12-10 14:51:30,"pw.edu.pl"
"1439",2020-12-10 14:39:48,"pw.edu.pl"
"1440",2020-12-10 14:39:44,"pw.edu.pl"
"1441",2020-12-10 14:37:23,"pw.edu.pl"
"1442",2020-12-10 14:32:22,"pw.edu.pl"
"1443",2020-12-10 14:32:14,"pw.edu.pl"
"1444",2020-12-10 14:32:09,"pw.edu.pl"
"1445",2020-12-10 14:22:48,"pw.edu.pl"
"1446",2020-12-10 14:19:46,"facebook.com"
"1447",2020-12-10 14:13:58,"facebook.com"
"1448",2020-12-10 14:13:58,"facebook.com"
"1449",2020-12-10 14:13:57,"facebook.com"
"1450",2020-12-10 14:13:55,"facebook.com"
"1451",2020-12-10 14:13:54,"facebook.com"
"1452",2020-12-10 14:13:52,"facebook.com"
"1453",2020-12-10 14:13:00,"google.com"
"1454",2020-12-10 14:08:33,"pw.edu.pl"
"1455",2020-12-10 14:08:23,"pw.edu.pl"
"1456",2020-12-10 14:08:18,"pw.edu.pl"
"1457",2020-12-10 14:07:06,"pw.edu.pl"
"1458",2020-12-10 14:06:43,"pw.edu.pl"
"1459",2020-12-10 14:04:36,"facebook.com"
"1460",2020-12-10 14:04:28,"facebook.com"
"1461",2020-12-10 14:04:27,"facebook.com"
"1462",2020-12-10 14:04:25,"facebook.com"
"1463",2020-12-10 14:03:29,"facebook.com"
"1464",2020-12-10 14:03:17,"facebook.com"
"1465",2020-12-10 14:03:13,"facebook.com"
"1466",2020-12-10 14:03:13,"facebook.com"
"1467",2020-12-10 14:03:12,"facebook.com"
"1468",2020-12-10 14:03:11,"facebook.com"
"1469",2020-12-10 14:03:10,"facebook.com"
"1470",2020-12-10 14:03:08,"facebook.com"
"1471",2020-12-10 14:03:05,"facebook.com"
"1472",2020-12-10 14:03:04,"facebook.com"
"1473",2020-12-10 14:03:04,"facebook.com"
"1474",2020-12-10 14:03:03,"facebook.com"
"1475",2020-12-10 14:03:02,"facebook.com"
"1476",2020-12-10 14:03:01,"facebook.com"
"1477",2020-12-10 14:02:59,"facebook.com"
"1478",2020-12-10 14:02:52,"facebook.com"
"1479",2020-12-10 14:02:47,"facebook.com"
"1480",2020-12-10 14:02:45,"facebook.com"
"1481",2020-12-10 14:02:44,"facebook.com"
"1482",2020-12-10 14:02:43,"facebook.com"
"1483",2020-12-10 14:02:42,"facebook.com"
"1484",2020-12-10 14:02:26,"facebook.com"
"1485",2020-12-10 14:02:26,"facebook.com"
"1486",2020-12-10 14:02:25,"facebook.com"
"1487",2020-12-10 14:02:25,"facebook.com"
"1488",2020-12-10 14:02:24,"facebook.com"
"1489",2020-12-10 14:02:19,"facebook.com"
"1490",2020-12-10 14:02:18,"facebook.com"
"1491",2020-12-10 14:02:16,"facebook.com"
"1492",2020-12-10 14:02:13,"facebook.com"
"1493",2020-12-10 14:02:06,"facebook.com"
"1494",2020-12-10 14:01:58,"facebook.com"
"1495",2020-12-10 14:01:58,"facebook.com"
"1496",2020-12-10 14:01:58,"facebook.com"
"1497",2020-12-10 14:01:58,"facebook.com"
"1498",2020-12-10 14:01:55,"facebook.com"
"1499",2020-12-10 14:01:54,"facebook.com"
"1500",2020-12-10 13:53:50,"pw.edu.pl"
"1501",2020-12-10 13:51:38,"pw.edu.pl"
"1502",2020-12-10 13:48:42,"pw.edu.pl"
"1503",2020-12-10 13:46:45,"pw.edu.pl"
"1504",2020-12-10 13:45:57,"pw.edu.pl"
"1505",2020-12-10 13:42:47,"pw.edu.pl"
"1506",2020-12-10 13:42:22,"pw.edu.pl"
"1507",2020-12-10 13:38:39,"pw.edu.pl"
"1508",2020-12-10 13:37:49,"pw.edu.pl"
"1509",2020-12-10 13:37:19,"pw.edu.pl"
"1510",2020-12-10 13:35:59,"pw.edu.pl"
"1511",2020-12-10 13:35:56,"pw.edu.pl"
"1512",2020-12-10 13:33:51,"pw.edu.pl"
"1513",2020-12-10 13:33:44,"pw.edu.pl"
"1514",2020-12-10 13:33:12,"pw.edu.pl"
"1515",2020-12-10 13:31:47,"pw.edu.pl"
