"","time_usec","domain","count"
"1",2019-12-21,"stackoverflow.com",0
"2",2019-12-21,"wikipedia.org",10
"3",2019-12-21,"github.com",0
"4",2019-12-21,"pw.edu.pl",7
"5",2019-12-21,"youtube.com",108
"6",2019-12-21,"google.com",57
"7",2019-12-21,"facebook.com",2
"8",2019-12-21,"instagram.com",0
"9",2019-12-22,"stackoverflow.com",0
"10",2019-12-22,"wikipedia.org",3
"11",2019-12-22,"github.com",0
"12",2019-12-22,"pw.edu.pl",0
"13",2019-12-22,"youtube.com",67
"14",2019-12-22,"google.com",47
"15",2019-12-22,"facebook.com",27
"16",2019-12-22,"instagram.com",0
"17",2019-12-23,"stackoverflow.com",0
"18",2019-12-23,"wikipedia.org",2
"19",2019-12-23,"github.com",0
"20",2019-12-23,"pw.edu.pl",0
"21",2019-12-23,"youtube.com",91
"22",2019-12-23,"google.com",57
"23",2019-12-23,"facebook.com",9
"24",2019-12-23,"instagram.com",0
"25",2019-12-24,"stackoverflow.com",0
"26",2019-12-24,"wikipedia.org",1
"27",2019-12-24,"github.com",0
"28",2019-12-24,"pw.edu.pl",2
"29",2019-12-24,"youtube.com",115
"30",2019-12-24,"google.com",66
"31",2019-12-24,"facebook.com",2
"32",2019-12-24,"instagram.com",0
"33",2019-12-25,"stackoverflow.com",0
"34",2019-12-25,"wikipedia.org",17
"35",2019-12-25,"github.com",0
"36",2019-12-25,"pw.edu.pl",0
"37",2019-12-25,"youtube.com",145
"38",2019-12-25,"google.com",114
"39",2019-12-25,"facebook.com",19
"40",2019-12-25,"instagram.com",0
"41",2019-12-26,"stackoverflow.com",0
"42",2019-12-26,"wikipedia.org",5
"43",2019-12-26,"github.com",0
"44",2019-12-26,"pw.edu.pl",15
"45",2019-12-26,"youtube.com",146
"46",2019-12-26,"google.com",106
"47",2019-12-26,"facebook.com",18
"48",2019-12-26,"instagram.com",0
"49",2019-12-27,"stackoverflow.com",0
"50",2019-12-27,"wikipedia.org",7
"51",2019-12-27,"github.com",20
"52",2019-12-27,"pw.edu.pl",43
"53",2019-12-27,"youtube.com",115
"54",2019-12-27,"google.com",126
"55",2019-12-27,"facebook.com",21
"56",2019-12-27,"instagram.com",0
"57",2019-12-28,"stackoverflow.com",0
"58",2019-12-28,"wikipedia.org",5
"59",2019-12-28,"github.com",0
"60",2019-12-28,"pw.edu.pl",5
"61",2019-12-28,"youtube.com",111
"62",2019-12-28,"google.com",169
"63",2019-12-28,"facebook.com",2
"64",2019-12-28,"instagram.com",0
"65",2019-12-29,"stackoverflow.com",0
"66",2019-12-29,"wikipedia.org",10
"67",2019-12-29,"github.com",0
"68",2019-12-29,"pw.edu.pl",13
"69",2019-12-29,"youtube.com",69
"70",2019-12-29,"google.com",106
"71",2019-12-29,"facebook.com",28
"72",2019-12-29,"instagram.com",0
"73",2019-12-30,"stackoverflow.com",1
"74",2019-12-30,"wikipedia.org",6
"75",2019-12-30,"github.com",0
"76",2019-12-30,"pw.edu.pl",4
"77",2019-12-30,"youtube.com",97
"78",2019-12-30,"google.com",100
"79",2019-12-30,"facebook.com",10
"80",2019-12-30,"instagram.com",0
"81",2019-12-31,"stackoverflow.com",0
"82",2019-12-31,"wikipedia.org",3
"83",2019-12-31,"github.com",0
"84",2019-12-31,"pw.edu.pl",9
"85",2019-12-31,"youtube.com",38
"86",2019-12-31,"google.com",105
"87",2019-12-31,"facebook.com",21
"88",2019-12-31,"instagram.com",0
"89",2020-01-01,"stackoverflow.com",0
"90",2020-01-01,"wikipedia.org",4
"91",2020-01-01,"github.com",0
"92",2020-01-01,"pw.edu.pl",2
"93",2020-01-01,"youtube.com",116
"94",2020-01-01,"google.com",120
"95",2020-01-01,"facebook.com",6
"96",2020-01-01,"instagram.com",0
"97",2020-01-02,"stackoverflow.com",0
"98",2020-01-02,"wikipedia.org",21
"99",2020-01-02,"github.com",0
"100",2020-01-02,"pw.edu.pl",6
"101",2020-01-02,"youtube.com",226
"102",2020-01-02,"google.com",239
"103",2020-01-02,"facebook.com",22
"104",2020-01-02,"instagram.com",0
"105",2020-01-03,"stackoverflow.com",0
"106",2020-01-03,"wikipedia.org",10
"107",2020-01-03,"github.com",0
"108",2020-01-03,"pw.edu.pl",14
"109",2020-01-03,"youtube.com",31
"110",2020-01-03,"google.com",169
"111",2020-01-03,"facebook.com",6
"112",2020-01-03,"instagram.com",0
"113",2020-01-04,"stackoverflow.com",0
"114",2020-01-04,"wikipedia.org",9
"115",2020-01-04,"github.com",0
"116",2020-01-04,"pw.edu.pl",2
"117",2020-01-04,"youtube.com",59
"118",2020-01-04,"google.com",122
"119",2020-01-04,"facebook.com",3
"120",2020-01-04,"instagram.com",0
"121",2020-01-05,"stackoverflow.com",1
"122",2020-01-05,"wikipedia.org",17
"123",2020-01-05,"github.com",0
"124",2020-01-05,"pw.edu.pl",10
"125",2020-01-05,"youtube.com",132
"126",2020-01-05,"google.com",126
"127",2020-01-05,"facebook.com",24
"128",2020-01-05,"instagram.com",1
"129",2020-01-06,"stackoverflow.com",0
"130",2020-01-06,"wikipedia.org",17
"131",2020-01-06,"github.com",0
"132",2020-01-06,"pw.edu.pl",0
"133",2020-01-06,"youtube.com",100
"134",2020-01-06,"google.com",139
"135",2020-01-06,"facebook.com",11
"136",2020-01-06,"instagram.com",0
"137",2020-01-07,"stackoverflow.com",0
"138",2020-01-07,"wikipedia.org",9
"139",2020-01-07,"github.com",0
"140",2020-01-07,"pw.edu.pl",10
"141",2020-01-07,"youtube.com",76
"142",2020-01-07,"google.com",44
"143",2020-01-07,"facebook.com",4
"144",2020-01-07,"instagram.com",0
"145",2020-01-08,"stackoverflow.com",0
"146",2020-01-08,"wikipedia.org",6
"147",2020-01-08,"github.com",0
"148",2020-01-08,"pw.edu.pl",9
"149",2020-01-08,"youtube.com",103
"150",2020-01-08,"google.com",45
"151",2020-01-08,"facebook.com",33
"152",2020-01-08,"instagram.com",0
"153",2020-01-09,"stackoverflow.com",0
"154",2020-01-09,"wikipedia.org",1
"155",2020-01-09,"github.com",0
"156",2020-01-09,"pw.edu.pl",0
"157",2020-01-09,"youtube.com",18
"158",2020-01-09,"google.com",18
"159",2020-01-09,"facebook.com",15
"160",2020-01-09,"instagram.com",0
"161",2020-01-10,"stackoverflow.com",0
"162",2020-01-10,"wikipedia.org",78
"163",2020-01-10,"github.com",0
"164",2020-01-10,"pw.edu.pl",26
"165",2020-01-10,"youtube.com",56
"166",2020-01-10,"google.com",150
"167",2020-01-10,"facebook.com",16
"168",2020-01-10,"instagram.com",0
"169",2020-01-11,"stackoverflow.com",0
"170",2020-01-11,"wikipedia.org",16
"171",2020-01-11,"github.com",0
"172",2020-01-11,"pw.edu.pl",32
"173",2020-01-11,"youtube.com",109
"174",2020-01-11,"google.com",112
"175",2020-01-11,"facebook.com",11
"176",2020-01-11,"instagram.com",0
"177",2020-01-12,"stackoverflow.com",0
"178",2020-01-12,"wikipedia.org",23
"179",2020-01-12,"github.com",0
"180",2020-01-12,"pw.edu.pl",58
"181",2020-01-12,"youtube.com",77
"182",2020-01-12,"google.com",89
"183",2020-01-12,"facebook.com",24
"184",2020-01-12,"instagram.com",0
"185",2020-01-13,"stackoverflow.com",0
"186",2020-01-13,"wikipedia.org",7
"187",2020-01-13,"github.com",0
"188",2020-01-13,"pw.edu.pl",0
"189",2020-01-13,"youtube.com",59
"190",2020-01-13,"google.com",103
"191",2020-01-13,"facebook.com",29
"192",2020-01-13,"instagram.com",0
"193",2020-01-14,"stackoverflow.com",0
"194",2020-01-14,"wikipedia.org",13
"195",2020-01-14,"github.com",0
"196",2020-01-14,"pw.edu.pl",6
"197",2020-01-14,"youtube.com",123
"198",2020-01-14,"google.com",182
"199",2020-01-14,"facebook.com",32
"200",2020-01-14,"instagram.com",0
"201",2020-01-15,"stackoverflow.com",0
"202",2020-01-15,"wikipedia.org",8
"203",2020-01-15,"github.com",34
"204",2020-01-15,"pw.edu.pl",0
"205",2020-01-15,"youtube.com",65
"206",2020-01-15,"google.com",111
"207",2020-01-15,"facebook.com",11
"208",2020-01-15,"instagram.com",0
"209",2020-01-16,"stackoverflow.com",0
"210",2020-01-16,"wikipedia.org",9
"211",2020-01-16,"github.com",0
"212",2020-01-16,"pw.edu.pl",0
"213",2020-01-16,"youtube.com",45
"214",2020-01-16,"google.com",44
"215",2020-01-16,"facebook.com",15
"216",2020-01-16,"instagram.com",0
"217",2020-01-17,"stackoverflow.com",0
"218",2020-01-17,"wikipedia.org",3
"219",2020-01-17,"github.com",0
"220",2020-01-17,"pw.edu.pl",0
"221",2020-01-17,"youtube.com",84
"222",2020-01-17,"google.com",91
"223",2020-01-17,"facebook.com",3
"224",2020-01-17,"instagram.com",0
"225",2020-01-18,"stackoverflow.com",0
"226",2020-01-18,"wikipedia.org",9
"227",2020-01-18,"github.com",0
"228",2020-01-18,"pw.edu.pl",8
"229",2020-01-18,"youtube.com",77
"230",2020-01-18,"google.com",73
"231",2020-01-18,"facebook.com",19
"232",2020-01-18,"instagram.com",0
"233",2020-01-19,"stackoverflow.com",0
"234",2020-01-19,"wikipedia.org",14
"235",2020-01-19,"github.com",0
"236",2020-01-19,"pw.edu.pl",12
"237",2020-01-19,"youtube.com",135
"238",2020-01-19,"google.com",110
"239",2020-01-19,"facebook.com",5
"240",2020-01-19,"instagram.com",0
"241",2020-01-20,"stackoverflow.com",0
"242",2020-01-20,"wikipedia.org",7
"243",2020-01-20,"github.com",0
"244",2020-01-20,"pw.edu.pl",19
"245",2020-01-20,"youtube.com",103
"246",2020-01-20,"google.com",97
"247",2020-01-20,"facebook.com",22
"248",2020-01-20,"instagram.com",0
"249",2020-01-21,"stackoverflow.com",0
"250",2020-01-21,"wikipedia.org",17
"251",2020-01-21,"github.com",0
"252",2020-01-21,"pw.edu.pl",28
"253",2020-01-21,"youtube.com",82
"254",2020-01-21,"google.com",112
"255",2020-01-21,"facebook.com",24
"256",2020-01-21,"instagram.com",0
"257",2020-01-22,"stackoverflow.com",0
"258",2020-01-22,"wikipedia.org",11
"259",2020-01-22,"github.com",0
"260",2020-01-22,"pw.edu.pl",33
"261",2020-01-22,"youtube.com",77
"262",2020-01-22,"google.com",74
"263",2020-01-22,"facebook.com",17
"264",2020-01-22,"instagram.com",0
"265",2020-01-23,"stackoverflow.com",0
"266",2020-01-23,"wikipedia.org",4
"267",2020-01-23,"github.com",0
"268",2020-01-23,"pw.edu.pl",15
"269",2020-01-23,"youtube.com",54
"270",2020-01-23,"google.com",12
"271",2020-01-23,"facebook.com",0
"272",2020-01-23,"instagram.com",0
"273",2020-01-24,"stackoverflow.com",0
"274",2020-01-24,"wikipedia.org",10
"275",2020-01-24,"github.com",0
"276",2020-01-24,"pw.edu.pl",44
"277",2020-01-24,"youtube.com",91
"278",2020-01-24,"google.com",42
"279",2020-01-24,"facebook.com",35
"280",2020-01-24,"instagram.com",0
"281",2020-01-25,"stackoverflow.com",0
"282",2020-01-25,"wikipedia.org",4
"283",2020-01-25,"github.com",0
"284",2020-01-25,"pw.edu.pl",0
"285",2020-01-25,"youtube.com",109
"286",2020-01-25,"google.com",87
"287",2020-01-25,"facebook.com",23
"288",2020-01-25,"instagram.com",0
"289",2020-01-26,"stackoverflow.com",0
"290",2020-01-26,"wikipedia.org",7
"291",2020-01-26,"github.com",0
"292",2020-01-26,"pw.edu.pl",9
"293",2020-01-26,"youtube.com",39
"294",2020-01-26,"google.com",86
"295",2020-01-26,"facebook.com",9
"296",2020-01-26,"instagram.com",0
"297",2020-01-27,"stackoverflow.com",0
"298",2020-01-27,"wikipedia.org",4
"299",2020-01-27,"github.com",0
"300",2020-01-27,"pw.edu.pl",12
"301",2020-01-27,"youtube.com",113
"302",2020-01-27,"google.com",79
"303",2020-01-27,"facebook.com",3
"304",2020-01-27,"instagram.com",0
"305",2020-01-28,"stackoverflow.com",0
"306",2020-01-28,"wikipedia.org",2
"307",2020-01-28,"github.com",0
"308",2020-01-28,"pw.edu.pl",28
"309",2020-01-28,"youtube.com",65
"310",2020-01-28,"google.com",93
"311",2020-01-28,"facebook.com",4
"312",2020-01-28,"instagram.com",0
"313",2020-01-29,"stackoverflow.com",0
"314",2020-01-29,"wikipedia.org",18
"315",2020-01-29,"github.com",0
"316",2020-01-29,"pw.edu.pl",42
"317",2020-01-29,"youtube.com",98
"318",2020-01-29,"google.com",57
"319",2020-01-29,"facebook.com",31
"320",2020-01-29,"instagram.com",0
"321",2020-01-30,"stackoverflow.com",0
"322",2020-01-30,"wikipedia.org",0
"323",2020-01-30,"github.com",0
"324",2020-01-30,"pw.edu.pl",0
"325",2020-01-30,"youtube.com",32
"326",2020-01-30,"google.com",2
"327",2020-01-30,"facebook.com",6
"328",2020-01-30,"instagram.com",0
"329",2020-01-31,"stackoverflow.com",0
"330",2020-01-31,"wikipedia.org",8
"331",2020-01-31,"github.com",8
"332",2020-01-31,"pw.edu.pl",97
"333",2020-01-31,"youtube.com",126
"334",2020-01-31,"google.com",77
"335",2020-01-31,"facebook.com",28
"336",2020-01-31,"instagram.com",0
"337",2020-02-01,"stackoverflow.com",0
"338",2020-02-01,"wikipedia.org",4
"339",2020-02-01,"github.com",0
"340",2020-02-01,"pw.edu.pl",57
"341",2020-02-01,"youtube.com",69
"342",2020-02-01,"google.com",42
"343",2020-02-01,"facebook.com",12
"344",2020-02-01,"instagram.com",0
"345",2020-02-02,"stackoverflow.com",0
"346",2020-02-02,"wikipedia.org",18
"347",2020-02-02,"github.com",0
"348",2020-02-02,"pw.edu.pl",56
"349",2020-02-02,"youtube.com",128
"350",2020-02-02,"google.com",74
"351",2020-02-02,"facebook.com",18
"352",2020-02-02,"instagram.com",0
"353",2020-02-03,"stackoverflow.com",0
"354",2020-02-03,"wikipedia.org",22
"355",2020-02-03,"github.com",0
"356",2020-02-03,"pw.edu.pl",1
"357",2020-02-03,"youtube.com",96
"358",2020-02-03,"google.com",111
"359",2020-02-03,"facebook.com",19
"360",2020-02-03,"instagram.com",0
"361",2020-02-04,"stackoverflow.com",0
"362",2020-02-04,"wikipedia.org",18
"363",2020-02-04,"github.com",15
"364",2020-02-04,"pw.edu.pl",9
"365",2020-02-04,"youtube.com",107
"366",2020-02-04,"google.com",79
"367",2020-02-04,"facebook.com",30
"368",2020-02-04,"instagram.com",0
"369",2020-02-05,"stackoverflow.com",0
"370",2020-02-05,"wikipedia.org",27
"371",2020-02-05,"github.com",9
"372",2020-02-05,"pw.edu.pl",129
"373",2020-02-05,"youtube.com",95
"374",2020-02-05,"google.com",93
"375",2020-02-05,"facebook.com",39
"376",2020-02-05,"instagram.com",0
"377",2020-02-06,"stackoverflow.com",0
"378",2020-02-06,"wikipedia.org",17
"379",2020-02-06,"github.com",0
"380",2020-02-06,"pw.edu.pl",13
"381",2020-02-06,"youtube.com",95
"382",2020-02-06,"google.com",130
"383",2020-02-06,"facebook.com",32
"384",2020-02-06,"instagram.com",0
"385",2020-02-07,"stackoverflow.com",0
"386",2020-02-07,"wikipedia.org",1
"387",2020-02-07,"github.com",0
"388",2020-02-07,"pw.edu.pl",4
"389",2020-02-07,"youtube.com",80
"390",2020-02-07,"google.com",34
"391",2020-02-07,"facebook.com",15
"392",2020-02-07,"instagram.com",0
"393",2020-02-08,"stackoverflow.com",0
"394",2020-02-08,"wikipedia.org",2
"395",2020-02-08,"github.com",0
"396",2020-02-08,"pw.edu.pl",27
"397",2020-02-08,"youtube.com",94
"398",2020-02-08,"google.com",55
"399",2020-02-08,"facebook.com",37
"400",2020-02-08,"instagram.com",0
"401",2020-02-09,"stackoverflow.com",0
"402",2020-02-09,"wikipedia.org",5
"403",2020-02-09,"github.com",0
"404",2020-02-09,"pw.edu.pl",0
"405",2020-02-09,"youtube.com",105
"406",2020-02-09,"google.com",46
"407",2020-02-09,"facebook.com",71
"408",2020-02-09,"instagram.com",0
"409",2020-02-10,"stackoverflow.com",0
"410",2020-02-10,"wikipedia.org",8
"411",2020-02-10,"github.com",0
"412",2020-02-10,"pw.edu.pl",63
"413",2020-02-10,"youtube.com",169
"414",2020-02-10,"google.com",123
"415",2020-02-10,"facebook.com",25
"416",2020-02-10,"instagram.com",0
"417",2020-02-11,"stackoverflow.com",0
"418",2020-02-11,"wikipedia.org",3
"419",2020-02-11,"github.com",0
"420",2020-02-11,"pw.edu.pl",17
"421",2020-02-11,"youtube.com",100
"422",2020-02-11,"google.com",81
"423",2020-02-11,"facebook.com",8
"424",2020-02-11,"instagram.com",0
"425",2020-02-12,"stackoverflow.com",0
"426",2020-02-12,"wikipedia.org",14
"427",2020-02-12,"github.com",0
"428",2020-02-12,"pw.edu.pl",11
"429",2020-02-12,"youtube.com",125
"430",2020-02-12,"google.com",65
"431",2020-02-12,"facebook.com",11
"432",2020-02-12,"instagram.com",0
"433",2020-02-13,"stackoverflow.com",0
"434",2020-02-13,"wikipedia.org",15
"435",2020-02-13,"github.com",0
"436",2020-02-13,"pw.edu.pl",10
"437",2020-02-13,"youtube.com",57
"438",2020-02-13,"google.com",39
"439",2020-02-13,"facebook.com",5
"440",2020-02-13,"instagram.com",0
"441",2020-02-14,"stackoverflow.com",0
"442",2020-02-14,"wikipedia.org",48
"443",2020-02-14,"github.com",0
"444",2020-02-14,"pw.edu.pl",150
"445",2020-02-14,"youtube.com",182
"446",2020-02-14,"google.com",86
"447",2020-02-14,"facebook.com",29
"448",2020-02-14,"instagram.com",0
"449",2020-02-15,"stackoverflow.com",0
"450",2020-02-15,"wikipedia.org",2
"451",2020-02-15,"github.com",0
"452",2020-02-15,"pw.edu.pl",0
"453",2020-02-15,"youtube.com",45
"454",2020-02-15,"google.com",19
"455",2020-02-15,"facebook.com",13
"456",2020-02-15,"instagram.com",0
"457",2020-02-16,"stackoverflow.com",0
"458",2020-02-16,"wikipedia.org",17
"459",2020-02-16,"github.com",0
"460",2020-02-16,"pw.edu.pl",4
"461",2020-02-16,"youtube.com",206
"462",2020-02-16,"google.com",89
"463",2020-02-16,"facebook.com",9
"464",2020-02-16,"instagram.com",0
"465",2020-02-17,"stackoverflow.com",0
"466",2020-02-17,"wikipedia.org",7
"467",2020-02-17,"github.com",0
"468",2020-02-17,"pw.edu.pl",0
"469",2020-02-17,"youtube.com",74
"470",2020-02-17,"google.com",68
"471",2020-02-17,"facebook.com",2
"472",2020-02-17,"instagram.com",0
"473",2020-02-18,"stackoverflow.com",0
"474",2020-02-18,"wikipedia.org",4
"475",2020-02-18,"github.com",0
"476",2020-02-18,"pw.edu.pl",0
"477",2020-02-18,"youtube.com",52
"478",2020-02-18,"google.com",54
"479",2020-02-18,"facebook.com",3
"480",2020-02-18,"instagram.com",0
"481",2020-02-19,"stackoverflow.com",0
"482",2020-02-19,"wikipedia.org",9
"483",2020-02-19,"github.com",0
"484",2020-02-19,"pw.edu.pl",5
"485",2020-02-19,"youtube.com",190
"486",2020-02-19,"google.com",152
"487",2020-02-19,"facebook.com",8
"488",2020-02-19,"instagram.com",0
"489",2020-02-20,"stackoverflow.com",0
"490",2020-02-20,"wikipedia.org",3
"491",2020-02-20,"github.com",0
"492",2020-02-20,"pw.edu.pl",228
"493",2020-02-20,"youtube.com",149
"494",2020-02-20,"google.com",149
"495",2020-02-20,"facebook.com",16
"496",2020-02-20,"instagram.com",0
"497",2020-02-21,"stackoverflow.com",0
"498",2020-02-21,"wikipedia.org",6
"499",2020-02-21,"github.com",0
"500",2020-02-21,"pw.edu.pl",10
"501",2020-02-21,"youtube.com",134
"502",2020-02-21,"google.com",84
"503",2020-02-21,"facebook.com",4
"504",2020-02-21,"instagram.com",0
"505",2020-02-22,"stackoverflow.com",0
"506",2020-02-22,"wikipedia.org",5
"507",2020-02-22,"github.com",0
"508",2020-02-22,"pw.edu.pl",35
"509",2020-02-22,"youtube.com",86
"510",2020-02-22,"google.com",126
"511",2020-02-22,"facebook.com",3
"512",2020-02-22,"instagram.com",0
"513",2020-02-23,"stackoverflow.com",0
"514",2020-02-23,"wikipedia.org",11
"515",2020-02-23,"github.com",0
"516",2020-02-23,"pw.edu.pl",13
"517",2020-02-23,"youtube.com",127
"518",2020-02-23,"google.com",189
"519",2020-02-23,"facebook.com",35
"520",2020-02-23,"instagram.com",0
"521",2020-02-24,"stackoverflow.com",0
"522",2020-02-24,"wikipedia.org",3
"523",2020-02-24,"github.com",0
"524",2020-02-24,"pw.edu.pl",0
"525",2020-02-24,"youtube.com",23
"526",2020-02-24,"google.com",49
"527",2020-02-24,"facebook.com",2
"528",2020-02-24,"instagram.com",0
"529",2020-02-25,"stackoverflow.com",0
"530",2020-02-25,"wikipedia.org",0
"531",2020-02-25,"github.com",0
"532",2020-02-25,"pw.edu.pl",4
"533",2020-02-25,"youtube.com",16
"534",2020-02-25,"google.com",28
"535",2020-02-25,"facebook.com",13
"536",2020-02-25,"instagram.com",0
"537",2020-02-26,"stackoverflow.com",0
"538",2020-02-26,"wikipedia.org",3
"539",2020-02-26,"github.com",0
"540",2020-02-26,"pw.edu.pl",16
"541",2020-02-26,"youtube.com",51
"542",2020-02-26,"google.com",95
"543",2020-02-26,"facebook.com",2
"544",2020-02-26,"instagram.com",0
"545",2020-02-27,"stackoverflow.com",0
"546",2020-02-27,"wikipedia.org",4
"547",2020-02-27,"github.com",0
"548",2020-02-27,"pw.edu.pl",33
"549",2020-02-27,"youtube.com",71
"550",2020-02-27,"google.com",86
"551",2020-02-27,"facebook.com",12
"552",2020-02-27,"instagram.com",0
"553",2020-02-28,"stackoverflow.com",0
"554",2020-02-28,"wikipedia.org",1
"555",2020-02-28,"github.com",0
"556",2020-02-28,"pw.edu.pl",9
"557",2020-02-28,"youtube.com",37
"558",2020-02-28,"google.com",45
"559",2020-02-28,"facebook.com",16
"560",2020-02-28,"instagram.com",0
"561",2020-02-29,"stackoverflow.com",0
"562",2020-02-29,"wikipedia.org",7
"563",2020-02-29,"github.com",0
"564",2020-02-29,"pw.edu.pl",86
"565",2020-02-29,"youtube.com",97
"566",2020-02-29,"google.com",69
"567",2020-02-29,"facebook.com",66
"568",2020-02-29,"instagram.com",0
"569",2020-03-01,"stackoverflow.com",0
"570",2020-03-01,"wikipedia.org",14
"571",2020-03-01,"github.com",0
"572",2020-03-01,"pw.edu.pl",40
"573",2020-03-01,"youtube.com",112
"574",2020-03-01,"google.com",54
"575",2020-03-01,"facebook.com",35
"576",2020-03-01,"instagram.com",0
"577",2020-03-02,"stackoverflow.com",0
"578",2020-03-02,"wikipedia.org",0
"579",2020-03-02,"github.com",0
"580",2020-03-02,"pw.edu.pl",0
"581",2020-03-02,"youtube.com",51
"582",2020-03-02,"google.com",46
"583",2020-03-02,"facebook.com",16
"584",2020-03-02,"instagram.com",0
"585",2020-03-03,"stackoverflow.com",0
"586",2020-03-03,"wikipedia.org",5
"587",2020-03-03,"github.com",0
"588",2020-03-03,"pw.edu.pl",26
"589",2020-03-03,"youtube.com",62
"590",2020-03-03,"google.com",81
"591",2020-03-03,"facebook.com",9
"592",2020-03-03,"instagram.com",0
"593",2020-03-04,"stackoverflow.com",0
"594",2020-03-04,"wikipedia.org",2
"595",2020-03-04,"github.com",0
"596",2020-03-04,"pw.edu.pl",0
"597",2020-03-04,"youtube.com",75
"598",2020-03-04,"google.com",155
"599",2020-03-04,"facebook.com",14
"600",2020-03-04,"instagram.com",0
"601",2020-03-05,"stackoverflow.com",0
"602",2020-03-05,"wikipedia.org",3
"603",2020-03-05,"github.com",0
"604",2020-03-05,"pw.edu.pl",4
"605",2020-03-05,"youtube.com",46
"606",2020-03-05,"google.com",30
"607",2020-03-05,"facebook.com",16
"608",2020-03-05,"instagram.com",0
"609",2020-03-06,"stackoverflow.com",0
"610",2020-03-06,"wikipedia.org",0
"611",2020-03-06,"github.com",0
"612",2020-03-06,"pw.edu.pl",3
"613",2020-03-06,"youtube.com",197
"614",2020-03-06,"google.com",44
"615",2020-03-06,"facebook.com",4
"616",2020-03-06,"instagram.com",0
"617",2020-03-07,"stackoverflow.com",0
"618",2020-03-07,"wikipedia.org",13
"619",2020-03-07,"github.com",0
"620",2020-03-07,"pw.edu.pl",9
"621",2020-03-07,"youtube.com",138
"622",2020-03-07,"google.com",131
"623",2020-03-07,"facebook.com",6
"624",2020-03-07,"instagram.com",0
"625",2020-03-08,"stackoverflow.com",0
"626",2020-03-08,"wikipedia.org",1
"627",2020-03-08,"github.com",0
"628",2020-03-08,"pw.edu.pl",98
"629",2020-03-08,"youtube.com",155
"630",2020-03-08,"google.com",139
"631",2020-03-08,"facebook.com",50
"632",2020-03-08,"instagram.com",0
"633",2020-03-09,"stackoverflow.com",0
"634",2020-03-09,"wikipedia.org",1
"635",2020-03-09,"github.com",0
"636",2020-03-09,"pw.edu.pl",3
"637",2020-03-09,"youtube.com",30
"638",2020-03-09,"google.com",58
"639",2020-03-09,"facebook.com",7
"640",2020-03-09,"instagram.com",0
"641",2020-03-10,"stackoverflow.com",0
"642",2020-03-10,"wikipedia.org",1
"643",2020-03-10,"github.com",0
"644",2020-03-10,"pw.edu.pl",0
"645",2020-03-10,"youtube.com",66
"646",2020-03-10,"google.com",41
"647",2020-03-10,"facebook.com",23
"648",2020-03-10,"instagram.com",0
"649",2020-03-11,"stackoverflow.com",0
"650",2020-03-11,"wikipedia.org",0
"651",2020-03-11,"github.com",0
"652",2020-03-11,"pw.edu.pl",0
"653",2020-03-11,"youtube.com",118
"654",2020-03-11,"google.com",26
"655",2020-03-11,"facebook.com",16
"656",2020-03-11,"instagram.com",0
"657",2020-03-12,"stackoverflow.com",0
"658",2020-03-12,"wikipedia.org",15
"659",2020-03-12,"github.com",0
"660",2020-03-12,"pw.edu.pl",40
"661",2020-03-12,"youtube.com",77
"662",2020-03-12,"google.com",156
"663",2020-03-12,"facebook.com",43
"664",2020-03-12,"instagram.com",0
"665",2020-03-13,"stackoverflow.com",0
"666",2020-03-13,"wikipedia.org",4
"667",2020-03-13,"github.com",0
"668",2020-03-13,"pw.edu.pl",32
"669",2020-03-13,"youtube.com",95
"670",2020-03-13,"google.com",90
"671",2020-03-13,"facebook.com",31
"672",2020-03-13,"instagram.com",0
"673",2020-03-14,"stackoverflow.com",0
"674",2020-03-14,"wikipedia.org",5
"675",2020-03-14,"github.com",11
"676",2020-03-14,"pw.edu.pl",12
"677",2020-03-14,"youtube.com",153
"678",2020-03-14,"google.com",224
"679",2020-03-14,"facebook.com",26
"680",2020-03-14,"instagram.com",0
"681",2020-03-15,"stackoverflow.com",0
"682",2020-03-15,"wikipedia.org",6
"683",2020-03-15,"github.com",0
"684",2020-03-15,"pw.edu.pl",34
"685",2020-03-15,"youtube.com",127
"686",2020-03-15,"google.com",123
"687",2020-03-15,"facebook.com",23
"688",2020-03-15,"instagram.com",0
"689",2020-03-16,"stackoverflow.com",0
"690",2020-03-16,"wikipedia.org",11
"691",2020-03-16,"github.com",0
"692",2020-03-16,"pw.edu.pl",7
"693",2020-03-16,"youtube.com",143
"694",2020-03-16,"google.com",163
"695",2020-03-16,"facebook.com",20
"696",2020-03-16,"instagram.com",0
"697",2020-03-17,"stackoverflow.com",0
"698",2020-03-17,"wikipedia.org",11
"699",2020-03-17,"github.com",1
"700",2020-03-17,"pw.edu.pl",19
"701",2020-03-17,"youtube.com",114
"702",2020-03-17,"google.com",168
"703",2020-03-17,"facebook.com",32
"704",2020-03-17,"instagram.com",0
"705",2020-03-18,"stackoverflow.com",0
"706",2020-03-18,"wikipedia.org",6
"707",2020-03-18,"github.com",10
"708",2020-03-18,"pw.edu.pl",21
"709",2020-03-18,"youtube.com",100
"710",2020-03-18,"google.com",122
"711",2020-03-18,"facebook.com",7
"712",2020-03-18,"instagram.com",0
"713",2020-03-19,"stackoverflow.com",0
"714",2020-03-19,"wikipedia.org",6
"715",2020-03-19,"github.com",29
"716",2020-03-19,"pw.edu.pl",52
"717",2020-03-19,"youtube.com",120
"718",2020-03-19,"google.com",171
"719",2020-03-19,"facebook.com",14
"720",2020-03-19,"instagram.com",0
"721",2020-03-20,"stackoverflow.com",0
"722",2020-03-20,"wikipedia.org",4
"723",2020-03-20,"github.com",0
"724",2020-03-20,"pw.edu.pl",1
"725",2020-03-20,"youtube.com",60
"726",2020-03-20,"google.com",74
"727",2020-03-20,"facebook.com",14
"728",2020-03-20,"instagram.com",0
"729",2020-03-21,"stackoverflow.com",0
"730",2020-03-21,"wikipedia.org",5
"731",2020-03-21,"github.com",0
"732",2020-03-21,"pw.edu.pl",39
"733",2020-03-21,"youtube.com",183
"734",2020-03-21,"google.com",138
"735",2020-03-21,"facebook.com",52
"736",2020-03-21,"instagram.com",0
"737",2020-03-22,"stackoverflow.com",0
"738",2020-03-22,"wikipedia.org",0
"739",2020-03-22,"github.com",43
"740",2020-03-22,"pw.edu.pl",76
"741",2020-03-22,"youtube.com",162
"742",2020-03-22,"google.com",107
"743",2020-03-22,"facebook.com",26
"744",2020-03-22,"instagram.com",0
"745",2020-03-23,"stackoverflow.com",1
"746",2020-03-23,"wikipedia.org",16
"747",2020-03-23,"github.com",23
"748",2020-03-23,"pw.edu.pl",46
"749",2020-03-23,"youtube.com",91
"750",2020-03-23,"google.com",228
"751",2020-03-23,"facebook.com",21
"752",2020-03-23,"instagram.com",0
"753",2020-03-24,"stackoverflow.com",0
"754",2020-03-24,"wikipedia.org",3
"755",2020-03-24,"github.com",1
"756",2020-03-24,"pw.edu.pl",14
"757",2020-03-24,"youtube.com",107
"758",2020-03-24,"google.com",124
"759",2020-03-24,"facebook.com",37
"760",2020-03-24,"instagram.com",0
"761",2020-03-25,"stackoverflow.com",0
"762",2020-03-25,"wikipedia.org",14
"763",2020-03-25,"github.com",0
"764",2020-03-25,"pw.edu.pl",45
"765",2020-03-25,"youtube.com",225
"766",2020-03-25,"google.com",126
"767",2020-03-25,"facebook.com",18
"768",2020-03-25,"instagram.com",0
"769",2020-03-26,"stackoverflow.com",0
"770",2020-03-26,"wikipedia.org",8
"771",2020-03-26,"github.com",0
"772",2020-03-26,"pw.edu.pl",31
"773",2020-03-26,"youtube.com",112
"774",2020-03-26,"google.com",110
"775",2020-03-26,"facebook.com",12
"776",2020-03-26,"instagram.com",0
"777",2020-03-27,"stackoverflow.com",3
"778",2020-03-27,"wikipedia.org",5
"779",2020-03-27,"github.com",9
"780",2020-03-27,"pw.edu.pl",38
"781",2020-03-27,"youtube.com",173
"782",2020-03-27,"google.com",76
"783",2020-03-27,"facebook.com",1
"784",2020-03-27,"instagram.com",0
"785",2020-03-28,"stackoverflow.com",1
"786",2020-03-28,"wikipedia.org",5
"787",2020-03-28,"github.com",0
"788",2020-03-28,"pw.edu.pl",0
"789",2020-03-28,"youtube.com",78
"790",2020-03-28,"google.com",97
"791",2020-03-28,"facebook.com",8
"792",2020-03-28,"instagram.com",0
"793",2020-03-29,"stackoverflow.com",0
"794",2020-03-29,"wikipedia.org",10
"795",2020-03-29,"github.com",0
"796",2020-03-29,"pw.edu.pl",25
"797",2020-03-29,"youtube.com",130
"798",2020-03-29,"google.com",94
"799",2020-03-29,"facebook.com",4
"800",2020-03-29,"instagram.com",0
"801",2020-03-30,"stackoverflow.com",1
"802",2020-03-30,"wikipedia.org",4
"803",2020-03-30,"github.com",66
"804",2020-03-30,"pw.edu.pl",24
"805",2020-03-30,"youtube.com",106
"806",2020-03-30,"google.com",151
"807",2020-03-30,"facebook.com",4
"808",2020-03-30,"instagram.com",0
"809",2020-03-31,"stackoverflow.com",0
"810",2020-03-31,"wikipedia.org",10
"811",2020-03-31,"github.com",0
"812",2020-03-31,"pw.edu.pl",23
"813",2020-03-31,"youtube.com",193
"814",2020-03-31,"google.com",146
"815",2020-03-31,"facebook.com",14
"816",2020-03-31,"instagram.com",0
"817",2020-04-01,"stackoverflow.com",0
"818",2020-04-01,"wikipedia.org",7
"819",2020-04-01,"github.com",7
"820",2020-04-01,"pw.edu.pl",30
"821",2020-04-01,"youtube.com",143
"822",2020-04-01,"google.com",96
"823",2020-04-01,"facebook.com",0
"824",2020-04-01,"instagram.com",0
"825",2020-04-02,"stackoverflow.com",0
"826",2020-04-02,"wikipedia.org",15
"827",2020-04-02,"github.com",0
"828",2020-04-02,"pw.edu.pl",2
"829",2020-04-02,"youtube.com",67
"830",2020-04-02,"google.com",120
"831",2020-04-02,"facebook.com",21
"832",2020-04-02,"instagram.com",0
"833",2020-04-03,"stackoverflow.com",0
"834",2020-04-03,"wikipedia.org",2
"835",2020-04-03,"github.com",0
"836",2020-04-03,"pw.edu.pl",2
"837",2020-04-03,"youtube.com",138
"838",2020-04-03,"google.com",109
"839",2020-04-03,"facebook.com",5
"840",2020-04-03,"instagram.com",0
"841",2020-04-04,"stackoverflow.com",1
"842",2020-04-04,"wikipedia.org",6
"843",2020-04-04,"github.com",48
"844",2020-04-04,"pw.edu.pl",2
"845",2020-04-04,"youtube.com",152
"846",2020-04-04,"google.com",80
"847",2020-04-04,"facebook.com",0
"848",2020-04-04,"instagram.com",0
"849",2020-04-05,"stackoverflow.com",8
"850",2020-04-05,"wikipedia.org",1
"851",2020-04-05,"github.com",4
"852",2020-04-05,"pw.edu.pl",0
"853",2020-04-05,"youtube.com",192
"854",2020-04-05,"google.com",83
"855",2020-04-05,"facebook.com",0
"856",2020-04-05,"instagram.com",0
"857",2020-04-06,"stackoverflow.com",3
"858",2020-04-06,"wikipedia.org",2
"859",2020-04-06,"github.com",72
"860",2020-04-06,"pw.edu.pl",42
"861",2020-04-06,"youtube.com",110
"862",2020-04-06,"google.com",121
"863",2020-04-06,"facebook.com",11
"864",2020-04-06,"instagram.com",0
"865",2020-04-07,"stackoverflow.com",0
"866",2020-04-07,"wikipedia.org",1
"867",2020-04-07,"github.com",10
"868",2020-04-07,"pw.edu.pl",21
"869",2020-04-07,"youtube.com",125
"870",2020-04-07,"google.com",90
"871",2020-04-07,"facebook.com",15
"872",2020-04-07,"instagram.com",0
"873",2020-04-08,"stackoverflow.com",0
"874",2020-04-08,"wikipedia.org",13
"875",2020-04-08,"github.com",0
"876",2020-04-08,"pw.edu.pl",29
"877",2020-04-08,"youtube.com",230
"878",2020-04-08,"google.com",90
"879",2020-04-08,"facebook.com",8
"880",2020-04-08,"instagram.com",0
"881",2020-04-09,"stackoverflow.com",0
"882",2020-04-09,"wikipedia.org",3
"883",2020-04-09,"github.com",0
"884",2020-04-09,"pw.edu.pl",12
"885",2020-04-09,"youtube.com",134
"886",2020-04-09,"google.com",78
"887",2020-04-09,"facebook.com",0
"888",2020-04-09,"instagram.com",0
"889",2020-04-10,"stackoverflow.com",5
"890",2020-04-10,"wikipedia.org",6
"891",2020-04-10,"github.com",23
"892",2020-04-10,"pw.edu.pl",6
"893",2020-04-10,"youtube.com",131
"894",2020-04-10,"google.com",115
"895",2020-04-10,"facebook.com",4
"896",2020-04-10,"instagram.com",0
"897",2020-04-11,"stackoverflow.com",4
"898",2020-04-11,"wikipedia.org",25
"899",2020-04-11,"github.com",0
"900",2020-04-11,"pw.edu.pl",0
"901",2020-04-11,"youtube.com",209
"902",2020-04-11,"google.com",174
"903",2020-04-11,"facebook.com",1
"904",2020-04-11,"instagram.com",0
"905",2020-04-12,"stackoverflow.com",1
"906",2020-04-12,"wikipedia.org",44
"907",2020-04-12,"github.com",20
"908",2020-04-12,"pw.edu.pl",33
"909",2020-04-12,"youtube.com",151
"910",2020-04-12,"google.com",181
"911",2020-04-12,"facebook.com",47
"912",2020-04-12,"instagram.com",0
"913",2020-04-13,"stackoverflow.com",0
"914",2020-04-13,"wikipedia.org",10
"915",2020-04-13,"github.com",1
"916",2020-04-13,"pw.edu.pl",9
"917",2020-04-13,"youtube.com",136
"918",2020-04-13,"google.com",152
"919",2020-04-13,"facebook.com",17
"920",2020-04-13,"instagram.com",0
"921",2020-04-14,"stackoverflow.com",0
"922",2020-04-14,"wikipedia.org",2
"923",2020-04-14,"github.com",18
"924",2020-04-14,"pw.edu.pl",22
"925",2020-04-14,"youtube.com",156
"926",2020-04-14,"google.com",45
"927",2020-04-14,"facebook.com",15
"928",2020-04-14,"instagram.com",0
"929",2020-04-15,"stackoverflow.com",0
"930",2020-04-15,"wikipedia.org",8
"931",2020-04-15,"github.com",6
"932",2020-04-15,"pw.edu.pl",16
"933",2020-04-15,"youtube.com",147
"934",2020-04-15,"google.com",42
"935",2020-04-15,"facebook.com",0
"936",2020-04-15,"instagram.com",0
"937",2020-04-16,"stackoverflow.com",0
"938",2020-04-16,"wikipedia.org",8
"939",2020-04-16,"github.com",0
"940",2020-04-16,"pw.edu.pl",15
"941",2020-04-16,"youtube.com",183
"942",2020-04-16,"google.com",40
"943",2020-04-16,"facebook.com",14
"944",2020-04-16,"instagram.com",0
"945",2020-04-17,"stackoverflow.com",0
"946",2020-04-17,"wikipedia.org",2
"947",2020-04-17,"github.com",14
"948",2020-04-17,"pw.edu.pl",8
"949",2020-04-17,"youtube.com",108
"950",2020-04-17,"google.com",79
"951",2020-04-17,"facebook.com",24
"952",2020-04-17,"instagram.com",0
"953",2020-04-18,"stackoverflow.com",1
"954",2020-04-18,"wikipedia.org",8
"955",2020-04-18,"github.com",0
"956",2020-04-18,"pw.edu.pl",28
"957",2020-04-18,"youtube.com",186
"958",2020-04-18,"google.com",73
"959",2020-04-18,"facebook.com",21
"960",2020-04-18,"instagram.com",0
"961",2020-04-19,"stackoverflow.com",0
"962",2020-04-19,"wikipedia.org",26
"963",2020-04-19,"github.com",0
"964",2020-04-19,"pw.edu.pl",9
"965",2020-04-19,"youtube.com",133
"966",2020-04-19,"google.com",200
"967",2020-04-19,"facebook.com",49
"968",2020-04-19,"instagram.com",0
"969",2020-04-20,"stackoverflow.com",2
"970",2020-04-20,"wikipedia.org",24
"971",2020-04-20,"github.com",50
"972",2020-04-20,"pw.edu.pl",45
"973",2020-04-20,"youtube.com",122
"974",2020-04-20,"google.com",187
"975",2020-04-20,"facebook.com",35
"976",2020-04-20,"instagram.com",0
"977",2020-04-21,"stackoverflow.com",2
"978",2020-04-21,"wikipedia.org",20
"979",2020-04-21,"github.com",33
"980",2020-04-21,"pw.edu.pl",125
"981",2020-04-21,"youtube.com",185
"982",2020-04-21,"google.com",147
"983",2020-04-21,"facebook.com",0
"984",2020-04-21,"instagram.com",0
"985",2020-04-22,"stackoverflow.com",2
"986",2020-04-22,"wikipedia.org",4
"987",2020-04-22,"github.com",3
"988",2020-04-22,"pw.edu.pl",27
"989",2020-04-22,"youtube.com",158
"990",2020-04-22,"google.com",120
"991",2020-04-22,"facebook.com",0
"992",2020-04-22,"instagram.com",0
"993",2020-04-23,"stackoverflow.com",30
"994",2020-04-23,"wikipedia.org",0
"995",2020-04-23,"github.com",7
"996",2020-04-23,"pw.edu.pl",27
"997",2020-04-23,"youtube.com",257
"998",2020-04-23,"google.com",110
"999",2020-04-23,"facebook.com",0
"1000",2020-04-23,"instagram.com",0
"1001",2020-04-24,"stackoverflow.com",0
"1002",2020-04-24,"wikipedia.org",1
"1003",2020-04-24,"github.com",0
"1004",2020-04-24,"pw.edu.pl",7
"1005",2020-04-24,"youtube.com",57
"1006",2020-04-24,"google.com",72
"1007",2020-04-24,"facebook.com",39
"1008",2020-04-24,"instagram.com",0
"1009",2020-04-25,"stackoverflow.com",3
"1010",2020-04-25,"wikipedia.org",9
"1011",2020-04-25,"github.com",27
"1012",2020-04-25,"pw.edu.pl",34
"1013",2020-04-25,"youtube.com",122
"1014",2020-04-25,"google.com",100
"1015",2020-04-25,"facebook.com",26
"1016",2020-04-25,"instagram.com",0
"1017",2020-04-26,"stackoverflow.com",0
"1018",2020-04-26,"wikipedia.org",10
"1019",2020-04-26,"github.com",25
"1020",2020-04-26,"pw.edu.pl",32
"1021",2020-04-26,"youtube.com",108
"1022",2020-04-26,"google.com",101
"1023",2020-04-26,"facebook.com",58
"1024",2020-04-26,"instagram.com",0
"1025",2020-04-27,"stackoverflow.com",0
"1026",2020-04-27,"wikipedia.org",6
"1027",2020-04-27,"github.com",7
"1028",2020-04-27,"pw.edu.pl",31
"1029",2020-04-27,"youtube.com",228
"1030",2020-04-27,"google.com",126
"1031",2020-04-27,"facebook.com",53
"1032",2020-04-27,"instagram.com",0
"1033",2020-04-28,"stackoverflow.com",5
"1034",2020-04-28,"wikipedia.org",2
"1035",2020-04-28,"github.com",19
"1036",2020-04-28,"pw.edu.pl",116
"1037",2020-04-28,"youtube.com",156
"1038",2020-04-28,"google.com",80
"1039",2020-04-28,"facebook.com",10
"1040",2020-04-28,"instagram.com",0
"1041",2020-04-29,"stackoverflow.com",13
"1042",2020-04-29,"wikipedia.org",4
"1043",2020-04-29,"github.com",49
"1044",2020-04-29,"pw.edu.pl",8
"1045",2020-04-29,"youtube.com",179
"1046",2020-04-29,"google.com",94
"1047",2020-04-29,"facebook.com",6
"1048",2020-04-29,"instagram.com",1
"1049",2020-04-30,"stackoverflow.com",0
"1050",2020-04-30,"wikipedia.org",6
"1051",2020-04-30,"github.com",37
"1052",2020-04-30,"pw.edu.pl",4
"1053",2020-04-30,"youtube.com",161
"1054",2020-04-30,"google.com",83
"1055",2020-04-30,"facebook.com",6
"1056",2020-04-30,"instagram.com",0
"1057",2020-05-01,"stackoverflow.com",0
"1058",2020-05-01,"wikipedia.org",15
"1059",2020-05-01,"github.com",40
"1060",2020-05-01,"pw.edu.pl",6
"1061",2020-05-01,"youtube.com",237
"1062",2020-05-01,"google.com",63
"1063",2020-05-01,"facebook.com",2
"1064",2020-05-01,"instagram.com",0
"1065",2020-05-02,"stackoverflow.com",2
"1066",2020-05-02,"wikipedia.org",5
"1067",2020-05-02,"github.com",19
"1068",2020-05-02,"pw.edu.pl",23
"1069",2020-05-02,"youtube.com",151
"1070",2020-05-02,"google.com",42
"1071",2020-05-02,"facebook.com",1
"1072",2020-05-02,"instagram.com",0
"1073",2020-05-03,"stackoverflow.com",10
"1074",2020-05-03,"wikipedia.org",12
"1075",2020-05-03,"github.com",23
"1076",2020-05-03,"pw.edu.pl",8
"1077",2020-05-03,"youtube.com",319
"1078",2020-05-03,"google.com",115
"1079",2020-05-03,"facebook.com",22
"1080",2020-05-03,"instagram.com",0
"1081",2020-05-04,"stackoverflow.com",2
"1082",2020-05-04,"wikipedia.org",4
"1083",2020-05-04,"github.com",11
"1084",2020-05-04,"pw.edu.pl",8
"1085",2020-05-04,"youtube.com",188
"1086",2020-05-04,"google.com",80
"1087",2020-05-04,"facebook.com",20
"1088",2020-05-04,"instagram.com",0
"1089",2020-05-05,"stackoverflow.com",6
"1090",2020-05-05,"wikipedia.org",10
"1091",2020-05-05,"github.com",8
"1092",2020-05-05,"pw.edu.pl",53
"1093",2020-05-05,"youtube.com",151
"1094",2020-05-05,"google.com",92
"1095",2020-05-05,"facebook.com",50
"1096",2020-05-05,"instagram.com",0
"1097",2020-05-06,"stackoverflow.com",6
"1098",2020-05-06,"wikipedia.org",1
"1099",2020-05-06,"github.com",3
"1100",2020-05-06,"pw.edu.pl",50
"1101",2020-05-06,"youtube.com",152
"1102",2020-05-06,"google.com",100
"1103",2020-05-06,"facebook.com",24
"1104",2020-05-06,"instagram.com",0
"1105",2020-05-07,"stackoverflow.com",7
"1106",2020-05-07,"wikipedia.org",1
"1107",2020-05-07,"github.com",0
"1108",2020-05-07,"pw.edu.pl",6
"1109",2020-05-07,"youtube.com",254
"1110",2020-05-07,"google.com",95
"1111",2020-05-07,"facebook.com",18
"1112",2020-05-07,"instagram.com",0
"1113",2020-05-08,"stackoverflow.com",12
"1114",2020-05-08,"wikipedia.org",6
"1115",2020-05-08,"github.com",0
"1116",2020-05-08,"pw.edu.pl",14
"1117",2020-05-08,"youtube.com",204
"1118",2020-05-08,"google.com",87
"1119",2020-05-08,"facebook.com",76
"1120",2020-05-08,"instagram.com",0
"1121",2020-05-09,"stackoverflow.com",4
"1122",2020-05-09,"wikipedia.org",2
"1123",2020-05-09,"github.com",17
"1124",2020-05-09,"pw.edu.pl",21
"1125",2020-05-09,"youtube.com",170
"1126",2020-05-09,"google.com",71
"1127",2020-05-09,"facebook.com",48
"1128",2020-05-09,"instagram.com",0
"1129",2020-05-10,"stackoverflow.com",4
"1130",2020-05-10,"wikipedia.org",4
"1131",2020-05-10,"github.com",4
"1132",2020-05-10,"pw.edu.pl",15
"1133",2020-05-10,"youtube.com",206
"1134",2020-05-10,"google.com",71
"1135",2020-05-10,"facebook.com",24
"1136",2020-05-10,"instagram.com",0
"1137",2020-05-11,"stackoverflow.com",11
"1138",2020-05-11,"wikipedia.org",1
"1139",2020-05-11,"github.com",18
"1140",2020-05-11,"pw.edu.pl",33
"1141",2020-05-11,"youtube.com",171
"1142",2020-05-11,"google.com",84
"1143",2020-05-11,"facebook.com",135
"1144",2020-05-11,"instagram.com",0
"1145",2020-05-12,"stackoverflow.com",3
"1146",2020-05-12,"wikipedia.org",6
"1147",2020-05-12,"github.com",70
"1148",2020-05-12,"pw.edu.pl",3
"1149",2020-05-12,"youtube.com",213
"1150",2020-05-12,"google.com",42
"1151",2020-05-12,"facebook.com",28
"1152",2020-05-12,"instagram.com",0
"1153",2020-05-13,"stackoverflow.com",0
"1154",2020-05-13,"wikipedia.org",13
"1155",2020-05-13,"github.com",0
"1156",2020-05-13,"pw.edu.pl",30
"1157",2020-05-13,"youtube.com",170
"1158",2020-05-13,"google.com",70
"1159",2020-05-13,"facebook.com",34
"1160",2020-05-13,"instagram.com",0
"1161",2020-05-14,"stackoverflow.com",1
"1162",2020-05-14,"wikipedia.org",20
"1163",2020-05-14,"github.com",43
"1164",2020-05-14,"pw.edu.pl",4
"1165",2020-05-14,"youtube.com",249
"1166",2020-05-14,"google.com",122
"1167",2020-05-14,"facebook.com",40
"1168",2020-05-14,"instagram.com",0
"1169",2020-05-15,"stackoverflow.com",0
"1170",2020-05-15,"wikipedia.org",29
"1171",2020-05-15,"github.com",0
"1172",2020-05-15,"pw.edu.pl",30
"1173",2020-05-15,"youtube.com",135
"1174",2020-05-15,"google.com",53
"1175",2020-05-15,"facebook.com",14
"1176",2020-05-15,"instagram.com",0
"1177",2020-05-16,"stackoverflow.com",3
"1178",2020-05-16,"wikipedia.org",10
"1179",2020-05-16,"github.com",38
"1180",2020-05-16,"pw.edu.pl",22
"1181",2020-05-16,"youtube.com",256
"1182",2020-05-16,"google.com",56
"1183",2020-05-16,"facebook.com",9
"1184",2020-05-16,"instagram.com",0
"1185",2020-05-17,"stackoverflow.com",0
"1186",2020-05-17,"wikipedia.org",31
"1187",2020-05-17,"github.com",0
"1188",2020-05-17,"pw.edu.pl",3
"1189",2020-05-17,"youtube.com",275
"1190",2020-05-17,"google.com",147
"1191",2020-05-17,"facebook.com",24
"1192",2020-05-17,"instagram.com",0
"1193",2020-05-18,"stackoverflow.com",0
"1194",2020-05-18,"wikipedia.org",9
"1195",2020-05-18,"github.com",8
"1196",2020-05-18,"pw.edu.pl",39
"1197",2020-05-18,"youtube.com",292
"1198",2020-05-18,"google.com",122
"1199",2020-05-18,"facebook.com",39
"1200",2020-05-18,"instagram.com",0
"1201",2020-05-19,"stackoverflow.com",0
"1202",2020-05-19,"wikipedia.org",3
"1203",2020-05-19,"github.com",0
"1204",2020-05-19,"pw.edu.pl",53
"1205",2020-05-19,"youtube.com",149
"1206",2020-05-19,"google.com",65
"1207",2020-05-19,"facebook.com",33
"1208",2020-05-19,"instagram.com",0
"1209",2020-05-20,"stackoverflow.com",0
"1210",2020-05-20,"wikipedia.org",7
"1211",2020-05-20,"github.com",0
"1212",2020-05-20,"pw.edu.pl",17
"1213",2020-05-20,"youtube.com",139
"1214",2020-05-20,"google.com",56
"1215",2020-05-20,"facebook.com",7
"1216",2020-05-20,"instagram.com",0
"1217",2020-05-21,"stackoverflow.com",0
"1218",2020-05-21,"wikipedia.org",10
"1219",2020-05-21,"github.com",0
"1220",2020-05-21,"pw.edu.pl",23
"1221",2020-05-21,"youtube.com",207
"1222",2020-05-21,"google.com",52
"1223",2020-05-21,"facebook.com",13
"1224",2020-05-21,"instagram.com",0
"1225",2020-05-22,"stackoverflow.com",0
"1226",2020-05-22,"wikipedia.org",39
"1227",2020-05-22,"github.com",11
"1228",2020-05-22,"pw.edu.pl",28
"1229",2020-05-22,"youtube.com",293
"1230",2020-05-22,"google.com",105
"1231",2020-05-22,"facebook.com",29
"1232",2020-05-22,"instagram.com",0
"1233",2020-05-23,"stackoverflow.com",0
"1234",2020-05-23,"wikipedia.org",38
"1235",2020-05-23,"github.com",0
"1236",2020-05-23,"pw.edu.pl",10
"1237",2020-05-23,"youtube.com",186
"1238",2020-05-23,"google.com",280
"1239",2020-05-23,"facebook.com",21
"1240",2020-05-23,"instagram.com",0
"1241",2020-05-24,"stackoverflow.com",7
"1242",2020-05-24,"wikipedia.org",6
"1243",2020-05-24,"github.com",25
"1244",2020-05-24,"pw.edu.pl",14
"1245",2020-05-24,"youtube.com",323
"1246",2020-05-24,"google.com",106
"1247",2020-05-24,"facebook.com",28
"1248",2020-05-24,"instagram.com",0
"1249",2020-05-25,"stackoverflow.com",4
"1250",2020-05-25,"wikipedia.org",1
"1251",2020-05-25,"github.com",5
"1252",2020-05-25,"pw.edu.pl",6
"1253",2020-05-25,"youtube.com",189
"1254",2020-05-25,"google.com",72
"1255",2020-05-25,"facebook.com",38
"1256",2020-05-25,"instagram.com",0
"1257",2020-05-26,"stackoverflow.com",6
"1258",2020-05-26,"wikipedia.org",5
"1259",2020-05-26,"github.com",5
"1260",2020-05-26,"pw.edu.pl",7
"1261",2020-05-26,"youtube.com",165
"1262",2020-05-26,"google.com",61
"1263",2020-05-26,"facebook.com",20
"1264",2020-05-26,"instagram.com",0
"1265",2020-05-27,"stackoverflow.com",0
"1266",2020-05-27,"wikipedia.org",2
"1267",2020-05-27,"github.com",0
"1268",2020-05-27,"pw.edu.pl",34
"1269",2020-05-27,"youtube.com",167
"1270",2020-05-27,"google.com",29
"1271",2020-05-27,"facebook.com",21
"1272",2020-05-27,"instagram.com",0
"1273",2020-05-28,"stackoverflow.com",0
"1274",2020-05-28,"wikipedia.org",5
"1275",2020-05-28,"github.com",0
"1276",2020-05-28,"pw.edu.pl",57
"1277",2020-05-28,"youtube.com",145
"1278",2020-05-28,"google.com",53
"1279",2020-05-28,"facebook.com",19
"1280",2020-05-28,"instagram.com",0
"1281",2020-05-29,"stackoverflow.com",10
"1282",2020-05-29,"wikipedia.org",5
"1283",2020-05-29,"github.com",17
"1284",2020-05-29,"pw.edu.pl",4
"1285",2020-05-29,"youtube.com",206
"1286",2020-05-29,"google.com",66
"1287",2020-05-29,"facebook.com",17
"1288",2020-05-29,"instagram.com",0
"1289",2020-05-30,"stackoverflow.com",1
"1290",2020-05-30,"wikipedia.org",0
"1291",2020-05-30,"github.com",9
"1292",2020-05-30,"pw.edu.pl",9
"1293",2020-05-30,"youtube.com",184
"1294",2020-05-30,"google.com",18
"1295",2020-05-30,"facebook.com",17
"1296",2020-05-30,"instagram.com",0
"1297",2020-05-31,"stackoverflow.com",10
"1298",2020-05-31,"wikipedia.org",1
"1299",2020-05-31,"github.com",2
"1300",2020-05-31,"pw.edu.pl",4
"1301",2020-05-31,"youtube.com",230
"1302",2020-05-31,"google.com",35
"1303",2020-05-31,"facebook.com",10
"1304",2020-05-31,"instagram.com",0
"1305",2020-06-01,"stackoverflow.com",1
"1306",2020-06-01,"wikipedia.org",3
"1307",2020-06-01,"github.com",2
"1308",2020-06-01,"pw.edu.pl",77
"1309",2020-06-01,"youtube.com",113
"1310",2020-06-01,"google.com",102
"1311",2020-06-01,"facebook.com",19
"1312",2020-06-01,"instagram.com",0
"1313",2020-06-02,"stackoverflow.com",0
"1314",2020-06-02,"wikipedia.org",8
"1315",2020-06-02,"github.com",0
"1316",2020-06-02,"pw.edu.pl",141
"1317",2020-06-02,"youtube.com",235
"1318",2020-06-02,"google.com",35
"1319",2020-06-02,"facebook.com",33
"1320",2020-06-02,"instagram.com",0
"1321",2020-06-03,"stackoverflow.com",0
"1322",2020-06-03,"wikipedia.org",5
"1323",2020-06-03,"github.com",0
"1324",2020-06-03,"pw.edu.pl",76
"1325",2020-06-03,"youtube.com",156
"1326",2020-06-03,"google.com",71
"1327",2020-06-03,"facebook.com",38
"1328",2020-06-03,"instagram.com",4
"1329",2020-06-04,"stackoverflow.com",0
"1330",2020-06-04,"wikipedia.org",2
"1331",2020-06-04,"github.com",5
"1332",2020-06-04,"pw.edu.pl",22
"1333",2020-06-04,"youtube.com",219
"1334",2020-06-04,"google.com",48
"1335",2020-06-04,"facebook.com",16
"1336",2020-06-04,"instagram.com",0
"1337",2020-06-05,"stackoverflow.com",9
"1338",2020-06-05,"wikipedia.org",10
"1339",2020-06-05,"github.com",15
"1340",2020-06-05,"pw.edu.pl",14
"1341",2020-06-05,"youtube.com",230
"1342",2020-06-05,"google.com",53
"1343",2020-06-05,"facebook.com",13
"1344",2020-06-05,"instagram.com",0
"1345",2020-06-06,"stackoverflow.com",1
"1346",2020-06-06,"wikipedia.org",2
"1347",2020-06-06,"github.com",0
"1348",2020-06-06,"pw.edu.pl",20
"1349",2020-06-06,"youtube.com",270
"1350",2020-06-06,"google.com",54
"1351",2020-06-06,"facebook.com",59
"1352",2020-06-06,"instagram.com",0
"1353",2020-06-07,"stackoverflow.com",2
"1354",2020-06-07,"wikipedia.org",3
"1355",2020-06-07,"github.com",17
"1356",2020-06-07,"pw.edu.pl",39
"1357",2020-06-07,"youtube.com",223
"1358",2020-06-07,"google.com",56
"1359",2020-06-07,"facebook.com",17
"1360",2020-06-07,"instagram.com",0
"1361",2020-06-08,"stackoverflow.com",0
"1362",2020-06-08,"wikipedia.org",6
"1363",2020-06-08,"github.com",30
"1364",2020-06-08,"pw.edu.pl",59
"1365",2020-06-08,"youtube.com",161
"1366",2020-06-08,"google.com",40
"1367",2020-06-08,"facebook.com",57
"1368",2020-06-08,"instagram.com",0
"1369",2020-06-09,"stackoverflow.com",0
"1370",2020-06-09,"wikipedia.org",42
"1371",2020-06-09,"github.com",1
"1372",2020-06-09,"pw.edu.pl",73
"1373",2020-06-09,"youtube.com",207
"1374",2020-06-09,"google.com",95
"1375",2020-06-09,"facebook.com",75
"1376",2020-06-09,"instagram.com",0
"1377",2020-06-10,"stackoverflow.com",0
"1378",2020-06-10,"wikipedia.org",3
"1379",2020-06-10,"github.com",4
"1380",2020-06-10,"pw.edu.pl",84
"1381",2020-06-10,"youtube.com",136
"1382",2020-06-10,"google.com",27
"1383",2020-06-10,"facebook.com",19
"1384",2020-06-10,"instagram.com",0
"1385",2020-06-11,"stackoverflow.com",8
"1386",2020-06-11,"wikipedia.org",5
"1387",2020-06-11,"github.com",53
"1388",2020-06-11,"pw.edu.pl",3
"1389",2020-06-11,"youtube.com",161
"1390",2020-06-11,"google.com",55
"1391",2020-06-11,"facebook.com",16
"1392",2020-06-11,"instagram.com",0
"1393",2020-06-12,"stackoverflow.com",8
"1394",2020-06-12,"wikipedia.org",2
"1395",2020-06-12,"github.com",0
"1396",2020-06-12,"pw.edu.pl",40
"1397",2020-06-12,"youtube.com",279
"1398",2020-06-12,"google.com",46
"1399",2020-06-12,"facebook.com",15
"1400",2020-06-12,"instagram.com",0
"1401",2020-06-13,"stackoverflow.com",0
"1402",2020-06-13,"wikipedia.org",3
"1403",2020-06-13,"github.com",0
"1404",2020-06-13,"pw.edu.pl",49
"1405",2020-06-13,"youtube.com",199
"1406",2020-06-13,"google.com",47
"1407",2020-06-13,"facebook.com",7
"1408",2020-06-13,"instagram.com",0
"1409",2020-06-14,"stackoverflow.com",2
"1410",2020-06-14,"wikipedia.org",8
"1411",2020-06-14,"github.com",23
"1412",2020-06-14,"pw.edu.pl",32
"1413",2020-06-14,"youtube.com",313
"1414",2020-06-14,"google.com",50
"1415",2020-06-14,"facebook.com",31
"1416",2020-06-14,"instagram.com",0
"1417",2020-06-15,"stackoverflow.com",0
"1418",2020-06-15,"wikipedia.org",1
"1419",2020-06-15,"github.com",11
"1420",2020-06-15,"pw.edu.pl",27
"1421",2020-06-15,"youtube.com",204
"1422",2020-06-15,"google.com",41
"1423",2020-06-15,"facebook.com",33
"1424",2020-06-15,"instagram.com",0
"1425",2020-06-16,"stackoverflow.com",2
"1426",2020-06-16,"wikipedia.org",1
"1427",2020-06-16,"github.com",25
"1428",2020-06-16,"pw.edu.pl",14
"1429",2020-06-16,"youtube.com",220
"1430",2020-06-16,"google.com",58
"1431",2020-06-16,"facebook.com",17
"1432",2020-06-16,"instagram.com",0
"1433",2020-06-17,"stackoverflow.com",0
"1434",2020-06-17,"wikipedia.org",7
"1435",2020-06-17,"github.com",3
"1436",2020-06-17,"pw.edu.pl",11
"1437",2020-06-17,"youtube.com",240
"1438",2020-06-17,"google.com",51
"1439",2020-06-17,"facebook.com",10
"1440",2020-06-17,"instagram.com",0
"1441",2020-06-18,"stackoverflow.com",0
"1442",2020-06-18,"wikipedia.org",1
"1443",2020-06-18,"github.com",0
"1444",2020-06-18,"pw.edu.pl",37
"1445",2020-06-18,"youtube.com",204
"1446",2020-06-18,"google.com",25
"1447",2020-06-18,"facebook.com",10
"1448",2020-06-18,"instagram.com",0
"1449",2020-06-19,"stackoverflow.com",4
"1450",2020-06-19,"wikipedia.org",1
"1451",2020-06-19,"github.com",20
"1452",2020-06-19,"pw.edu.pl",149
"1453",2020-06-19,"youtube.com",184
"1454",2020-06-19,"google.com",38
"1455",2020-06-19,"facebook.com",43
"1456",2020-06-19,"instagram.com",0
"1457",2020-06-20,"stackoverflow.com",0
"1458",2020-06-20,"wikipedia.org",10
"1459",2020-06-20,"github.com",1
"1460",2020-06-20,"pw.edu.pl",0
"1461",2020-06-20,"youtube.com",88
"1462",2020-06-20,"google.com",31
"1463",2020-06-20,"facebook.com",13
"1464",2020-06-20,"instagram.com",0
"1465",2020-06-21,"stackoverflow.com",0
"1466",2020-06-21,"wikipedia.org",0
"1467",2020-06-21,"github.com",2
"1468",2020-06-21,"pw.edu.pl",0
"1469",2020-06-21,"youtube.com",181
"1470",2020-06-21,"google.com",38
"1471",2020-06-21,"facebook.com",18
"1472",2020-06-21,"instagram.com",0
"1473",2020-06-22,"stackoverflow.com",0
"1474",2020-06-22,"wikipedia.org",5
"1475",2020-06-22,"github.com",36
"1476",2020-06-22,"pw.edu.pl",16
"1477",2020-06-22,"youtube.com",158
"1478",2020-06-22,"google.com",51
"1479",2020-06-22,"facebook.com",16
"1480",2020-06-22,"instagram.com",0
"1481",2020-06-23,"stackoverflow.com",0
"1482",2020-06-23,"wikipedia.org",10
"1483",2020-06-23,"github.com",7
"1484",2020-06-23,"pw.edu.pl",13
"1485",2020-06-23,"youtube.com",158
"1486",2020-06-23,"google.com",50
"1487",2020-06-23,"facebook.com",29
"1488",2020-06-23,"instagram.com",0
"1489",2020-06-24,"stackoverflow.com",0
"1490",2020-06-24,"wikipedia.org",18
"1491",2020-06-24,"github.com",0
"1492",2020-06-24,"pw.edu.pl",19
"1493",2020-06-24,"youtube.com",196
"1494",2020-06-24,"google.com",25
"1495",2020-06-24,"facebook.com",4
"1496",2020-06-24,"instagram.com",0
"1497",2020-06-25,"stackoverflow.com",0
"1498",2020-06-25,"wikipedia.org",1
"1499",2020-06-25,"github.com",0
"1500",2020-06-25,"pw.edu.pl",39
"1501",2020-06-25,"youtube.com",179
"1502",2020-06-25,"google.com",56
"1503",2020-06-25,"facebook.com",33
"1504",2020-06-25,"instagram.com",0
"1505",2020-06-26,"stackoverflow.com",0
"1506",2020-06-26,"wikipedia.org",17
"1507",2020-06-26,"github.com",1
"1508",2020-06-26,"pw.edu.pl",127
"1509",2020-06-26,"youtube.com",221
"1510",2020-06-26,"google.com",73
"1511",2020-06-26,"facebook.com",74
"1512",2020-06-26,"instagram.com",0
"1513",2020-06-27,"stackoverflow.com",0
"1514",2020-06-27,"wikipedia.org",2
"1515",2020-06-27,"github.com",0
"1516",2020-06-27,"pw.edu.pl",12
"1517",2020-06-27,"youtube.com",288
"1518",2020-06-27,"google.com",62
"1519",2020-06-27,"facebook.com",22
"1520",2020-06-27,"instagram.com",0
"1521",2020-06-28,"stackoverflow.com",0
"1522",2020-06-28,"wikipedia.org",14
"1523",2020-06-28,"github.com",0
"1524",2020-06-28,"pw.edu.pl",3
"1525",2020-06-28,"youtube.com",252
"1526",2020-06-28,"google.com",87
"1527",2020-06-28,"facebook.com",37
"1528",2020-06-28,"instagram.com",0
"1529",2020-06-29,"stackoverflow.com",0
"1530",2020-06-29,"wikipedia.org",5
"1531",2020-06-29,"github.com",0
"1532",2020-06-29,"pw.edu.pl",8
"1533",2020-06-29,"youtube.com",181
"1534",2020-06-29,"google.com",63
"1535",2020-06-29,"facebook.com",68
"1536",2020-06-29,"instagram.com",0
"1537",2020-06-30,"stackoverflow.com",0
"1538",2020-06-30,"wikipedia.org",15
"1539",2020-06-30,"github.com",0
"1540",2020-06-30,"pw.edu.pl",12
"1541",2020-06-30,"youtube.com",146
"1542",2020-06-30,"google.com",40
"1543",2020-06-30,"facebook.com",39
"1544",2020-06-30,"instagram.com",0
"1545",2020-07-01,"stackoverflow.com",0
"1546",2020-07-01,"wikipedia.org",0
"1547",2020-07-01,"github.com",0
"1548",2020-07-01,"pw.edu.pl",0
"1549",2020-07-01,"youtube.com",173
"1550",2020-07-01,"google.com",54
"1551",2020-07-01,"facebook.com",42
"1552",2020-07-01,"instagram.com",0
"1553",2020-07-02,"stackoverflow.com",0
"1554",2020-07-02,"wikipedia.org",5
"1555",2020-07-02,"github.com",0
"1556",2020-07-02,"pw.edu.pl",7
"1557",2020-07-02,"youtube.com",119
"1558",2020-07-02,"google.com",44
"1559",2020-07-02,"facebook.com",25
"1560",2020-07-02,"instagram.com",0
"1561",2020-07-03,"stackoverflow.com",0
"1562",2020-07-03,"wikipedia.org",3
"1563",2020-07-03,"github.com",0
"1564",2020-07-03,"pw.edu.pl",6
"1565",2020-07-03,"youtube.com",147
"1566",2020-07-03,"google.com",54
"1567",2020-07-03,"facebook.com",37
"1568",2020-07-03,"instagram.com",0
"1569",2020-07-04,"stackoverflow.com",0
"1570",2020-07-04,"wikipedia.org",0
"1571",2020-07-04,"github.com",0
"1572",2020-07-04,"pw.edu.pl",0
"1573",2020-07-04,"youtube.com",87
"1574",2020-07-04,"google.com",7
"1575",2020-07-04,"facebook.com",31
"1576",2020-07-04,"instagram.com",0
"1577",2020-07-05,"stackoverflow.com",0
"1578",2020-07-05,"wikipedia.org",2
"1579",2020-07-05,"github.com",0
"1580",2020-07-05,"pw.edu.pl",0
"1581",2020-07-05,"youtube.com",138
"1582",2020-07-05,"google.com",31
"1583",2020-07-05,"facebook.com",50
"1584",2020-07-05,"instagram.com",0
"1585",2020-07-06,"stackoverflow.com",0
"1586",2020-07-06,"wikipedia.org",5
"1587",2020-07-06,"github.com",0
"1588",2020-07-06,"pw.edu.pl",0
"1589",2020-07-06,"youtube.com",64
"1590",2020-07-06,"google.com",36
"1591",2020-07-06,"facebook.com",19
"1592",2020-07-06,"instagram.com",0
"1593",2020-07-07,"stackoverflow.com",0
"1594",2020-07-07,"wikipedia.org",7
"1595",2020-07-07,"github.com",0
"1596",2020-07-07,"pw.edu.pl",4
"1597",2020-07-07,"youtube.com",141
"1598",2020-07-07,"google.com",51
"1599",2020-07-07,"facebook.com",46
"1600",2020-07-07,"instagram.com",0
"1601",2020-07-08,"stackoverflow.com",0
"1602",2020-07-08,"wikipedia.org",7
"1603",2020-07-08,"github.com",0
"1604",2020-07-08,"pw.edu.pl",11
"1605",2020-07-08,"youtube.com",135
"1606",2020-07-08,"google.com",59
"1607",2020-07-08,"facebook.com",43
"1608",2020-07-08,"instagram.com",0
"1609",2020-07-09,"stackoverflow.com",0
"1610",2020-07-09,"wikipedia.org",10
"1611",2020-07-09,"github.com",0
"1612",2020-07-09,"pw.edu.pl",114
"1613",2020-07-09,"youtube.com",72
"1614",2020-07-09,"google.com",85
"1615",2020-07-09,"facebook.com",42
"1616",2020-07-09,"instagram.com",0
"1617",2020-07-10,"stackoverflow.com",0
"1618",2020-07-10,"wikipedia.org",7
"1619",2020-07-10,"github.com",0
"1620",2020-07-10,"pw.edu.pl",1
"1621",2020-07-10,"youtube.com",120
"1622",2020-07-10,"google.com",59
"1623",2020-07-10,"facebook.com",45
"1624",2020-07-10,"instagram.com",0
"1625",2020-07-11,"stackoverflow.com",0
"1626",2020-07-11,"wikipedia.org",12
"1627",2020-07-11,"github.com",0
"1628",2020-07-11,"pw.edu.pl",3
"1629",2020-07-11,"youtube.com",169
"1630",2020-07-11,"google.com",119
"1631",2020-07-11,"facebook.com",47
"1632",2020-07-11,"instagram.com",0
"1633",2020-07-12,"stackoverflow.com",0
"1634",2020-07-12,"wikipedia.org",2
"1635",2020-07-12,"github.com",0
"1636",2020-07-12,"pw.edu.pl",0
"1637",2020-07-12,"youtube.com",212
"1638",2020-07-12,"google.com",48
"1639",2020-07-12,"facebook.com",47
"1640",2020-07-12,"instagram.com",0
"1641",2020-07-13,"stackoverflow.com",0
"1642",2020-07-13,"wikipedia.org",12
"1643",2020-07-13,"github.com",0
"1644",2020-07-13,"pw.edu.pl",3
"1645",2020-07-13,"youtube.com",324
"1646",2020-07-13,"google.com",128
"1647",2020-07-13,"facebook.com",55
"1648",2020-07-13,"instagram.com",0
"1649",2020-07-14,"stackoverflow.com",0
"1650",2020-07-14,"wikipedia.org",9
"1651",2020-07-14,"github.com",0
"1652",2020-07-14,"pw.edu.pl",57
"1653",2020-07-14,"youtube.com",230
"1654",2020-07-14,"google.com",79
"1655",2020-07-14,"facebook.com",30
"1656",2020-07-14,"instagram.com",0
"1657",2020-07-15,"stackoverflow.com",0
"1658",2020-07-15,"wikipedia.org",3
"1659",2020-07-15,"github.com",1
"1660",2020-07-15,"pw.edu.pl",64
"1661",2020-07-15,"youtube.com",120
"1662",2020-07-15,"google.com",80
"1663",2020-07-15,"facebook.com",30
"1664",2020-07-15,"instagram.com",0
"1665",2020-07-16,"stackoverflow.com",0
"1666",2020-07-16,"wikipedia.org",7
"1667",2020-07-16,"github.com",0
"1668",2020-07-16,"pw.edu.pl",58
"1669",2020-07-16,"youtube.com",151
"1670",2020-07-16,"google.com",111
"1671",2020-07-16,"facebook.com",10
"1672",2020-07-16,"instagram.com",0
"1673",2020-07-17,"stackoverflow.com",0
"1674",2020-07-17,"wikipedia.org",9
"1675",2020-07-17,"github.com",0
"1676",2020-07-17,"pw.edu.pl",0
"1677",2020-07-17,"youtube.com",137
"1678",2020-07-17,"google.com",90
"1679",2020-07-17,"facebook.com",43
"1680",2020-07-17,"instagram.com",0
"1681",2020-07-18,"stackoverflow.com",0
"1682",2020-07-18,"wikipedia.org",7
"1683",2020-07-18,"github.com",0
"1684",2020-07-18,"pw.edu.pl",30
"1685",2020-07-18,"youtube.com",161
"1686",2020-07-18,"google.com",131
"1687",2020-07-18,"facebook.com",29
"1688",2020-07-18,"instagram.com",0
"1689",2020-07-19,"stackoverflow.com",0
"1690",2020-07-19,"wikipedia.org",8
"1691",2020-07-19,"github.com",0
"1692",2020-07-19,"pw.edu.pl",1
"1693",2020-07-19,"youtube.com",309
"1694",2020-07-19,"google.com",173
"1695",2020-07-19,"facebook.com",86
"1696",2020-07-19,"instagram.com",0
"1697",2020-07-20,"stackoverflow.com",0
"1698",2020-07-20,"wikipedia.org",5
"1699",2020-07-20,"github.com",0
"1700",2020-07-20,"pw.edu.pl",0
"1701",2020-07-20,"youtube.com",69
"1702",2020-07-20,"google.com",26
"1703",2020-07-20,"facebook.com",17
"1704",2020-07-20,"instagram.com",0
"1705",2020-07-21,"stackoverflow.com",0
"1706",2020-07-21,"wikipedia.org",2
"1707",2020-07-21,"github.com",0
"1708",2020-07-21,"pw.edu.pl",0
"1709",2020-07-21,"youtube.com",164
"1710",2020-07-21,"google.com",145
"1711",2020-07-21,"facebook.com",22
"1712",2020-07-21,"instagram.com",0
"1713",2020-07-22,"stackoverflow.com",0
"1714",2020-07-22,"wikipedia.org",8
"1715",2020-07-22,"github.com",0
"1716",2020-07-22,"pw.edu.pl",0
"1717",2020-07-22,"youtube.com",239
"1718",2020-07-22,"google.com",96
"1719",2020-07-22,"facebook.com",41
"1720",2020-07-22,"instagram.com",0
