"time_usec","domain"
2020-12-15 16:40:58,"google.com"
2020-12-15 16:39:47,"google.com"
2020-12-15 16:39:42,"google.com"
2020-12-15 16:39:35,"google.com"
2020-12-15 16:39:09,"google.com"
2020-12-15 16:38:44,"google.com"
2020-12-15 16:34:21,"google.com"
2020-12-15 16:34:11,"google.com"
2020-12-15 16:34:03,"google.com"
2020-12-15 16:34:00,"google.com"
2020-12-15 16:33:55,"google.com"
2020-12-15 16:30:18,"google.com"
2020-12-15 16:30:13,"google.com"
2020-12-15 16:30:07,"google.com"
2020-12-15 16:30:04,"google.com"
2020-12-15 16:29:55,"google.com"
2020-12-15 16:28:40,"google.com"
2020-12-15 16:28:40,"google.com"
2020-12-15 16:28:33,"google.com"
2020-12-15 16:28:31,"google.com"
2020-12-15 16:27:33,"google.com"
2020-12-15 16:26:52,"google.com"
2020-12-15 15:38:30,"wikipedia.org"
2020-12-15 15:37:46,"wikipedia.org"
2020-12-15 15:37:45,"google.com"
2020-12-15 15:36:49,"wikipedia.org"
2020-12-15 15:27:05,"facebook.com"
2020-12-15 14:37:03,"google.com"
2020-12-15 14:32:08,"wikipedia.org"
2020-12-15 14:31:55,"google.com"
2020-12-15 14:31:54,"google.com"
2020-12-15 13:58:08,"google.com"
2020-12-15 13:57:50,"google.com"
2020-12-15 13:57:30,"google.com"
2020-12-15 13:57:01,"google.com"
2020-12-15 13:56:59,"google.com"
2020-12-15 13:56:29,"google.com"
2020-12-15 13:55:55,"google.com"
2020-12-15 13:55:54,"google.com"
2020-12-15 13:55:13,"google.com"
2020-12-15 13:51:04,"wikipedia.org"
2020-12-15 13:51:00,"wikipedia.org"
2020-12-15 13:50:59,"google.com"
2020-12-15 12:55:19,"google.com"
2020-12-15 12:54:31,"google.com"
2020-12-15 12:54:25,"google.com"
2020-12-15 11:52:19,"google.com"
2020-12-15 11:51:39,"google.com"
2020-12-15 11:25:57,"wikipedia.org"
2020-12-15 10:59:38,"google.com"
2020-12-15 10:59:25,"google.com"
2020-12-15 10:58:37,"google.com"
2020-12-15 10:56:54,"google.com"
2020-12-15 10:56:06,"google.com"
2020-12-15 10:56:06,"google.com"
2020-12-15 10:54:23,"google.com"
2020-12-15 10:53:34,"google.com"
2020-12-15 10:53:05,"google.com"
2020-12-15 10:37:44,"wikipedia.org"
2020-12-15 10:36:10,"google.com"
2020-12-15 10:35:57,"facebook.com"
2020-12-15 10:35:56,"facebook.com"
2020-12-15 10:27:43,"google.com"
2020-12-15 10:27:29,"google.com"
2020-12-15 10:26:33,"google.com"
2020-12-15 10:22:46,"google.com"
2020-12-15 10:17:24,"google.com"
2020-12-15 10:17:10,"google.com"
2020-12-15 10:10:30,"wikipedia.org"
2020-12-15 10:10:26,"google.com"
2020-12-15 09:22:29,"google.com"
2020-12-15 09:20:52,"google.com"
2020-12-15 09:02:54,"google.com"
2020-12-15 09:02:00,"google.com"
2020-12-15 09:01:20,"google.com"
2020-12-15 08:59:19,"google.com"
2020-12-15 08:57:28,"google.com"
2020-12-15 08:57:13,"google.com"
2020-12-15 08:56:34,"google.com"
2020-12-15 08:52:51,"google.com"
2020-12-15 08:52:27,"google.com"
2020-12-15 08:52:18,"google.com"
2020-12-15 08:52:15,"google.com"
2020-12-15 08:52:15,"google.com"
2020-12-15 08:52:11,"facebook.com"
2020-12-15 08:46:36,"google.com"
2020-12-15 08:46:27,"google.com"
2020-12-15 08:45:41,"google.com"
2020-12-15 08:43:56,"google.com"
2020-12-15 08:40:39,"google.com"
2020-12-15 08:40:38,"google.com"
2020-12-15 08:40:37,"facebook.com"
2020-12-15 08:32:41,"facebook.com"
2020-12-15 08:25:36,"google.com"
2020-12-15 08:09:10,"google.com"
2020-12-15 08:00:35,"google.com"
2020-12-15 08:00:35,"wikipedia.org"
2020-12-15 08:00:21,"youtube.com"
2020-12-15 08:00:15,"google.com"
2020-12-15 08:00:15,"google.com"
2020-12-15 07:59:57,"google.com"
2020-12-15 07:59:56,"google.com"
2020-12-15 07:59:55,"google.com"
2020-12-15 07:59:48,"google.com"
2020-12-15 07:59:43,"wikipedia.org"
2020-12-15 07:59:41,"facebook.com"
2020-12-15 07:59:40,"google.com"
2020-12-15 07:24:22,"google.com"
2020-12-15 00:14:13,"google.com"
2020-12-15 00:13:24,"google.com"
2020-12-14 23:52:57,"google.com"
2020-12-14 23:52:56,"google.com"
2020-12-14 23:52:53,"google.com"
2020-12-14 23:52:51,"google.com"
2020-12-14 23:52:50,"google.com"
2020-12-14 23:46:50,"google.com"
2020-12-14 23:43:49,"google.com"
2020-12-14 23:43:34,"google.com"
2020-12-14 23:43:24,"google.com"
2020-12-14 23:43:03,"google.com"
2020-12-14 23:42:56,"google.com"
2020-12-14 23:42:55,"google.com"
2020-12-14 23:42:29,"google.com"
2020-12-14 23:42:14,"google.com"
2020-12-14 23:35:41,"google.com"
2020-12-14 23:11:17,"google.com"
2020-12-14 23:06:38,"google.com"
2020-12-14 23:06:37,"google.com"
2020-12-14 23:04:43,"google.com"
2020-12-14 23:00:30,"google.com"
2020-12-14 23:00:29,"google.com"
2020-12-14 23:00:22,"facebook.com"
2020-12-14 20:31:36,"google.com"
2020-12-14 20:28:08,"google.com"
2020-12-14 20:27:57,"google.com"
2020-12-14 20:10:02,"google.com"
2020-12-14 20:09:41,"google.com"
2020-12-14 20:08:37,"google.com"
2020-12-14 20:08:10,"google.com"
2020-12-14 20:07:36,"google.com"
2020-12-14 20:07:10,"google.com"
2020-12-14 20:07:07,"facebook.com"
2020-12-14 20:04:36,"google.com"
2020-12-14 20:04:35,"google.com"
2020-12-14 20:04:29,"facebook.com"
2020-12-14 19:40:15,"google.com"
2020-12-14 19:40:07,"google.com"
2020-12-14 19:39:41,"google.com"
2020-12-14 19:18:37,"google.com"
2020-12-14 19:18:33,"google.com"
2020-12-14 19:18:13,"google.com"
2020-12-14 19:18:10,"google.com"
2020-12-14 19:16:45,"google.com"
2020-12-14 19:16:40,"google.com"
2020-12-14 19:15:37,"google.com"
2020-12-14 19:12:06,"google.com"
2020-12-14 18:50:19,"google.com"
2020-12-14 18:50:15,"facebook.com"
2020-12-14 18:39:07,"google.com"
2020-12-14 18:38:00,"google.com"
2020-12-14 18:37:33,"google.com"
2020-12-14 18:36:19,"google.com"
2020-12-14 18:36:10,"github.com"
2020-12-14 18:15:54,"github.com"
2020-12-14 17:54:44,"facebook.com"
2020-12-14 17:54:32,"facebook.com"
2020-12-14 17:40:30,"google.com"
2020-12-14 17:40:26,"google.com"
2020-12-14 17:37:28,"wikipedia.org"
2020-12-14 17:37:26,"wikipedia.org"
2020-12-14 17:36:29,"wikipedia.org"
2020-12-14 17:36:19,"wikipedia.org"
2020-12-14 17:36:16,"wikipedia.org"
2020-12-14 17:36:15,"google.com"
2020-12-14 17:23:44,"google.com"
2020-12-14 17:19:35,"google.com"
2020-12-14 17:10:57,"google.com"
2020-12-14 17:10:47,"google.com"
2020-12-14 17:10:37,"google.com"
2020-12-14 17:10:34,"google.com"
2020-12-14 17:10:10,"google.com"
2020-12-14 17:10:08,"google.com"
2020-12-14 17:09:27,"google.com"
2020-12-14 17:09:22,"google.com"
2020-12-14 17:09:14,"google.com"
2020-12-14 17:04:51,"google.com"
2020-12-14 17:04:31,"google.com"
2020-12-14 17:02:59,"google.com"
2020-12-14 17:02:01,"google.com"
2020-12-14 17:01:59,"google.com"
2020-12-14 16:59:27,"google.com"
2020-12-14 16:59:19,"google.com"
2020-12-14 15:56:27,"github.com"
2020-12-14 15:56:27,"github.com"
2020-12-14 15:56:26,"github.com"
2020-12-14 15:56:25,"github.com"
2020-12-14 15:56:16,"github.com"
2020-12-14 15:42:58,"google.com"
2020-12-14 15:42:40,"google.com"
2020-12-14 15:37:36,"google.com"
2020-12-14 15:36:35,"google.com"
2020-12-14 15:17:26,"google.com"
2020-12-14 15:04:06,"youtube.com"
2020-12-14 15:04:02,"youtube.com"
2020-12-14 15:00:52,"google.com"
2020-12-14 14:46:25,"google.com"
2020-12-14 14:45:12,"facebook.com"
2020-12-14 14:22:02,"google.com"
2020-12-14 14:20:50,"google.com"
2020-12-14 14:20:09,"google.com"
2020-12-14 14:19:40,"google.com"
2020-12-14 14:19:39,"google.com"
2020-12-14 14:19:37,"google.com"
2020-12-14 14:19:34,"google.com"
2020-12-14 14:19:27,"google.com"
2020-12-14 14:19:26,"google.com"
2020-12-14 14:19:22,"github.com"
2020-12-14 14:19:11,"facebook.com"
2020-12-14 13:42:52,"github.com"
2020-12-14 13:42:50,"github.com"
2020-12-14 13:42:44,"github.com"
2020-12-14 13:40:43,"wikipedia.org"
2020-12-14 13:39:44,"wikipedia.org"
2020-12-14 13:36:58,"wikipedia.org"
2020-12-14 13:36:43,"google.com"
2020-12-14 13:36:14,"wikipedia.org"
2020-12-14 13:36:04,"wikipedia.org"
2020-12-14 13:30:43,"google.com"
2020-12-14 13:09:22,"facebook.com"
2020-12-14 13:09:12,"facebook.com"
2020-12-14 12:38:59,"youtube.com"
2020-12-14 12:38:59,"youtube.com"
2020-12-14 12:38:53,"youtube.com"
2020-12-14 12:38:13,"youtube.com"
2020-12-14 12:38:13,"youtube.com"
2020-12-14 12:38:09,"facebook.com"
2020-12-14 12:32:36,"facebook.com"
2020-12-14 12:30:01,"facebook.com"
2020-12-14 12:29:30,"facebook.com"
2020-12-14 12:29:03,"facebook.com"
2020-12-14 12:28:35,"google.com"
2020-12-14 12:28:29,"facebook.com"
2020-12-14 12:25:49,"youtube.com"
2020-12-14 12:25:39,"facebook.com"
2020-12-14 12:23:14,"facebook.com"
2020-12-14 12:23:09,"facebook.com"
2020-12-14 12:16:50,"google.com"
2020-12-14 12:16:44,"wikipedia.org"
2020-12-14 12:16:37,"google.com"
2020-12-14 12:16:37,"google.com"
2020-12-14 12:16:36,"youtube.com"
2020-12-14 12:16:35,"google.com"
2020-12-14 12:16:29,"pw.edu.pl"
2020-12-14 12:16:26,"github.com"
2020-12-14 12:16:17,"facebook.com"
2020-12-14 10:28:00,"github.com"
2020-12-14 09:25:52,"github.com"
2020-12-14 09:17:20,"github.com"
2020-12-13 20:01:13,"github.com"
2020-12-13 19:55:19,"github.com"
2020-12-13 19:55:05,"github.com"
2020-12-13 19:55:04,"github.com"
2020-12-13 19:54:59,"github.com"
2020-12-13 19:54:55,"github.com"
2020-12-13 19:54:40,"github.com"
2020-12-13 19:54:38,"github.com"
2020-12-13 19:54:36,"github.com"
2020-12-13 19:54:35,"github.com"
2020-12-13 19:54:15,"github.com"
2020-12-13 19:54:13,"github.com"
2020-12-13 19:53:59,"github.com"
2020-12-13 19:53:57,"github.com"
2020-12-13 19:53:50,"github.com"
2020-12-13 19:53:50,"github.com"
2020-12-13 19:53:45,"github.com"
2020-12-13 19:53:39,"github.com"
2020-12-13 19:42:21,"google.com"
2020-12-13 19:30:39,"google.com"
2020-12-13 19:30:30,"github.com"
2020-12-13 19:28:43,"google.com"
2020-12-13 19:28:26,"google.com"
2020-12-13 19:28:26,"google.com"
2020-12-13 19:28:21,"google.com"
2020-12-13 19:28:17,"google.com"
2020-12-13 19:27:56,"google.com"
2020-12-13 19:27:38,"google.com"
2020-12-13 19:27:32,"google.com"
2020-12-13 19:27:24,"google.com"
2020-12-13 19:27:19,"google.com"
2020-12-13 19:27:18,"google.com"
2020-12-13 19:27:16,"google.com"
2020-12-13 19:27:15,"google.com"
2020-12-13 19:26:11,"google.com"
2020-12-13 19:25:58,"google.com"
2020-12-13 19:25:58,"google.com"
2020-12-13 19:25:42,"google.com"
2020-12-13 19:25:26,"wikipedia.org"
2020-12-13 19:25:20,"wikipedia.org"
2020-12-13 19:25:14,"wikipedia.org"
2020-12-13 19:22:58,"google.com"
2020-12-13 19:22:49,"wikipedia.org"
2020-12-13 19:22:40,"google.com"
2020-12-13 19:21:50,"wikipedia.org"
2020-12-13 19:21:46,"google.com"
2020-12-13 19:20:51,"google.com"
2020-12-13 19:20:39,"google.com"
2020-12-13 19:15:38,"github.com"
2020-12-13 19:15:32,"github.com"
2020-12-13 19:15:24,"github.com"
2020-12-13 19:15:17,"github.com"
2020-12-13 19:15:14,"github.com"
2020-12-13 19:15:14,"github.com"
2020-12-13 19:15:12,"github.com"
2020-12-13 19:15:12,"github.com"
2020-12-13 19:15:05,"github.com"
2020-12-13 19:14:23,"github.com"
2020-12-13 19:13:58,"github.com"
2020-12-13 19:13:55,"github.com"
2020-12-13 19:13:10,"github.com"
2020-12-13 19:13:06,"github.com"
2020-12-13 19:13:05,"github.com"
2020-12-13 19:12:51,"github.com"
2020-12-13 19:12:41,"github.com"
2020-12-13 19:12:34,"github.com"
2020-12-13 19:12:34,"github.com"
2020-12-13 19:12:27,"github.com"
2020-12-13 19:12:19,"github.com"
2020-12-13 19:10:46,"facebook.com"
2020-12-13 19:10:43,"facebook.com"
2020-12-13 18:48:59,"wikipedia.org"
2020-12-13 18:48:58,"google.com"
2020-12-13 18:41:52,"pw.edu.pl"
2020-12-13 18:41:44,"pw.edu.pl"
2020-12-13 18:41:42,"pw.edu.pl"
2020-12-13 18:41:35,"pw.edu.pl"
2020-12-13 18:40:11,"google.com"
2020-12-13 18:39:03,"google.com"
2020-12-13 18:38:45,"google.com"
2020-12-13 18:36:53,"google.com"
2020-12-13 18:36:42,"google.com"
2020-12-13 18:35:09,"google.com"
2020-12-13 18:33:36,"google.com"
2020-12-13 18:33:22,"google.com"
2020-12-13 18:33:09,"google.com"
2020-12-13 18:33:01,"google.com"
2020-12-13 18:28:32,"pw.edu.pl"
2020-12-13 18:27:33,"pw.edu.pl"
2020-12-13 18:26:52,"pw.edu.pl"
2020-12-13 18:26:49,"pw.edu.pl"
2020-12-13 18:26:46,"pw.edu.pl"
2020-12-13 18:07:35,"google.com"
2020-12-13 18:07:30,"google.com"
2020-12-13 18:03:33,"google.com"
2020-12-13 18:02:34,"google.com"
2020-12-13 17:58:04,"google.com"
2020-12-13 17:47:38,"google.com"
2020-12-13 17:47:36,"google.com"
2020-12-13 17:47:20,"google.com"
2020-12-13 17:47:18,"google.com"
2020-12-13 17:47:03,"youtube.com"
2020-12-13 17:46:43,"google.com"
2020-12-13 17:45:57,"wikipedia.org"
2020-12-13 17:45:54,"wikipedia.org"
2020-12-13 17:44:39,"wikipedia.org"
2020-12-13 17:44:35,"wikipedia.org"
2020-12-13 17:44:34,"google.com"
2020-12-13 17:44:29,"google.com"
2020-12-13 17:44:18,"google.com"
2020-12-13 17:42:35,"google.com"
2020-12-13 17:42:20,"google.com"
2020-12-13 17:39:27,"google.com"
2020-12-13 17:33:37,"wikipedia.org"
2020-12-13 17:33:36,"google.com"
2020-12-13 17:33:16,"google.com"
2020-12-13 17:32:18,"google.com"
2020-12-13 17:29:28,"wikipedia.org"
2020-12-13 17:29:26,"google.com"
2020-12-13 17:23:23,"google.com"
2020-12-13 17:23:20,"google.com"
2020-12-13 17:22:06,"google.com"
2020-12-13 17:21:28,"google.com"
2020-12-13 17:20:30,"google.com"
2020-12-13 17:20:29,"google.com"
2020-12-13 17:20:20,"google.com"
2020-12-13 17:20:13,"google.com"
2020-12-13 17:20:11,"google.com"
2020-12-13 17:19:58,"google.com"
2020-12-13 17:19:56,"google.com"
2020-12-13 17:19:52,"google.com"
2020-12-13 17:19:50,"google.com"
2020-12-13 17:19:48,"google.com"
2020-12-13 17:19:34,"google.com"
2020-12-13 17:19:29,"google.com"
2020-12-13 17:19:22,"google.com"
2020-12-13 17:16:39,"google.com"
2020-12-13 17:16:31,"google.com"
2020-12-13 17:16:27,"google.com"
2020-12-13 17:15:51,"google.com"
2020-12-13 17:15:39,"google.com"
2020-12-13 17:15:37,"google.com"
2020-12-13 17:15:19,"google.com"
2020-12-13 17:15:17,"google.com"
2020-12-13 17:15:15,"google.com"
2020-12-13 17:15:13,"google.com"
2020-12-13 17:15:03,"google.com"
2020-12-13 17:15:01,"google.com"
2020-12-13 17:14:59,"google.com"
2020-12-13 17:14:58,"google.com"
2020-12-13 17:14:08,"google.com"
2020-12-13 17:14:06,"google.com"
2020-12-13 17:08:59,"google.com"
2020-12-13 17:08:40,"google.com"
2020-12-13 17:08:32,"google.com"
2020-12-13 17:08:30,"wikipedia.org"
2020-12-13 17:08:22,"google.com"
2020-12-13 17:07:40,"wikipedia.org"
2020-12-13 17:07:31,"google.com"
2020-12-13 17:06:51,"google.com"
2020-12-13 17:04:27,"google.com"
2020-12-13 16:57:24,"pw.edu.pl"
2020-12-13 16:54:50,"google.com"
2020-12-13 16:53:29,"google.com"
2020-12-13 16:53:04,"google.com"
2020-12-13 16:51:09,"google.com"
2020-12-13 16:37:33,"google.com"
2020-12-13 16:36:10,"google.com"
2020-12-13 16:35:57,"google.com"
2020-12-13 16:33:52,"google.com"
2020-12-13 16:33:35,"google.com"
2020-12-13 16:33:15,"google.com"
2020-12-13 16:28:58,"google.com"
2020-12-13 16:27:03,"facebook.com"
2020-12-13 16:26:56,"facebook.com"
2020-12-13 16:18:57,"google.com"
2020-12-13 16:14:59,"google.com"
2020-12-13 16:12:31,"google.com"
2020-12-13 16:12:24,"google.com"
2020-12-13 16:11:58,"google.com"
2020-12-13 16:10:53,"google.com"
2020-12-13 16:08:55,"google.com"
2020-12-13 16:08:49,"google.com"
2020-12-13 16:05:51,"google.com"
2020-12-13 16:00:24,"facebook.com"
2020-12-13 15:59:52,"facebook.com"
2020-12-13 15:54:18,"google.com"
2020-12-13 15:50:36,"facebook.com"
2020-12-13 15:50:34,"facebook.com"
2020-12-13 14:38:27,"google.com"
2020-12-13 14:38:15,"google.com"
2020-12-13 14:26:58,"google.com"
2020-12-13 14:26:54,"google.com"
2020-12-13 14:26:52,"google.com"
2020-12-13 14:26:40,"google.com"
2020-12-13 14:26:32,"google.com"
2020-12-13 14:07:39,"google.com"
2020-12-13 14:01:51,"google.com"
2020-12-13 14:01:20,"google.com"
2020-12-13 14:01:02,"google.com"
2020-12-13 13:57:48,"google.com"
2020-12-13 13:54:01,"google.com"
2020-12-13 13:53:53,"google.com"
2020-12-13 13:52:04,"google.com"
2020-12-13 13:27:09,"github.com"
2020-12-13 13:27:04,"github.com"
2020-12-13 13:27:02,"github.com"
2020-12-13 13:27:01,"github.com"
2020-12-13 13:26:58,"github.com"
2020-12-13 13:26:52,"github.com"
2020-12-13 13:26:21,"github.com"
2020-12-13 13:26:21,"github.com"
2020-12-13 13:26:14,"github.com"
2020-12-13 13:26:05,"github.com"
2020-12-13 13:25:57,"github.com"
2020-12-13 13:25:12,"facebook.com"
2020-12-13 13:25:03,"facebook.com"
2020-12-13 13:24:39,"facebook.com"
2020-12-13 13:24:37,"facebook.com"
2020-12-13 13:24:35,"facebook.com"
2020-12-13 13:23:49,"facebook.com"
2020-12-13 13:23:48,"facebook.com"
2020-12-13 13:21:45,"facebook.com"
2020-12-13 13:21:38,"facebook.com"
2020-12-13 13:21:22,"facebook.com"
2020-12-13 13:20:51,"facebook.com"
2020-12-13 13:00:54,"wikipedia.org"
2020-12-13 13:00:47,"google.com"
2020-12-13 13:00:43,"google.com"
2020-12-13 13:00:43,"google.com"
2020-12-13 13:00:38,"youtube.com"
2020-12-13 13:00:29,"google.com"
2020-12-13 13:00:29,"google.com"
2020-12-13 13:00:29,"google.com"
2020-12-13 13:00:12,"google.com"
2020-12-13 13:00:00,"google.com"
2020-12-13 12:59:58,"google.com"
2020-12-13 12:59:40,"facebook.com"
2020-12-13 12:59:35,"wikipedia.org"
2020-12-13 10:04:47,"google.com"
2020-12-12 18:56:00,"google.com"
2020-12-12 16:50:00,"wikipedia.org"
2020-12-12 16:25:56,"facebook.com"
2020-12-12 16:23:38,"facebook.com"
2020-12-12 16:19:30,"pw.edu.pl"
2020-12-12 16:19:04,"stackoverflow.com"
2020-12-12 16:18:33,"wikipedia.org"
2020-12-12 16:18:31,"wikipedia.org"
2020-12-12 16:18:22,"google.com"
2020-12-12 16:17:43,"wikipedia.org"
2020-12-12 16:17:35,"youtube.com"
2020-12-12 16:17:25,"facebook.com"
2020-12-12 16:17:15,"facebook.com"
2020-12-12 16:17:10,"google.com"
2020-12-12 16:17:09,"google.com"
2020-12-12 16:17:09,"youtube.com"
2020-12-12 16:17:01,"google.com"
2020-12-12 16:16:51,"google.com"
2020-12-12 16:16:32,"google.com"
2020-12-12 12:22:29,"google.com"
2020-12-12 09:04:02,"google.com"
2020-12-11 23:39:04,"google.com"
2020-12-11 23:39:02,"google.com"
2020-12-11 22:27:34,"google.com"
2020-12-11 22:06:02,"google.com"
2020-12-11 22:02:33,"google.com"
2020-12-11 22:02:09,"google.com"
2020-12-11 22:00:49,"google.com"
2020-12-11 22:00:30,"google.com"
2020-12-11 21:59:39,"google.com"
2020-12-11 21:59:02,"google.com"
2020-12-11 21:58:08,"google.com"
2020-12-11 21:57:50,"google.com"
2020-12-11 21:56:58,"google.com"
2020-12-11 21:56:40,"google.com"
2020-12-11 21:55:08,"google.com"
2020-12-11 21:54:16,"google.com"
2020-12-11 21:52:48,"google.com"
2020-12-11 21:47:02,"google.com"
2020-12-11 21:46:29,"google.com"
2020-12-11 21:45:43,"google.com"
2020-12-11 21:45:17,"google.com"
2020-12-11 21:45:01,"google.com"
2020-12-11 21:44:54,"google.com"
2020-12-11 21:42:58,"google.com"
2020-12-11 21:41:07,"google.com"
2020-12-11 21:39:27,"google.com"
2020-12-11 21:36:58,"google.com"
2020-12-11 21:23:59,"google.com"
2020-12-11 21:22:23,"wikipedia.org"
2020-12-11 21:22:19,"wikipedia.org"
2020-12-11 21:18:41,"google.com"
2020-12-11 21:05:06,"wikipedia.org"
2020-12-11 21:05:04,"wikipedia.org"
2020-12-11 21:05:02,"wikipedia.org"
2020-12-11 21:02:56,"google.com"
2020-12-11 21:01:36,"google.com"
2020-12-11 21:01:22,"google.com"
2020-12-11 21:00:27,"google.com"
2020-12-11 20:58:16,"google.com"
2020-12-11 20:57:38,"google.com"
2020-12-11 20:52:10,"wikipedia.org"
2020-12-11 20:51:10,"wikipedia.org"
2020-12-11 20:50:14,"google.com"
2020-12-11 20:49:47,"wikipedia.org"
2020-12-11 20:49:42,"wikipedia.org"
2020-12-11 20:49:34,"wikipedia.org"
2020-12-11 20:49:33,"google.com"
2020-12-11 20:46:31,"wikipedia.org"
2020-12-11 20:46:12,"wikipedia.org"
2020-12-11 20:45:57,"wikipedia.org"
2020-12-11 20:45:48,"wikipedia.org"
2020-12-11 20:45:38,"wikipedia.org"
2020-12-11 20:45:36,"google.com"
2020-12-11 20:41:32,"google.com"
2020-12-11 20:41:27,"google.com"
2020-12-11 20:41:05,"google.com"
2020-12-11 20:37:55,"google.com"
2020-12-11 20:37:34,"google.com"
2020-12-11 20:36:18,"google.com"
2020-12-11 20:29:06,"google.com"
2020-12-11 20:28:17,"google.com"
2020-12-11 20:27:56,"google.com"
2020-12-11 20:18:15,"wikipedia.org"
2020-12-11 20:18:00,"wikipedia.org"
2020-12-11 20:17:08,"wikipedia.org"
2020-12-11 20:16:57,"google.com"
2020-12-11 20:07:09,"google.com"
2020-12-11 20:00:45,"google.com"
2020-12-11 20:00:00,"google.com"
2020-12-11 19:59:47,"google.com"
2020-12-11 19:56:17,"wikipedia.org"
2020-12-11 19:56:16,"wikipedia.org"
2020-12-11 19:56:12,"google.com"
2020-12-11 19:56:11,"google.com"
2020-12-11 19:56:10,"wikipedia.org"
2020-12-11 19:56:06,"google.com"
2020-12-11 19:55:54,"google.com"
2020-12-11 19:55:49,"google.com"
2020-12-11 19:55:48,"google.com"
2020-12-11 19:55:44,"youtube.com"
2020-12-11 19:55:44,"google.com"
2020-12-11 19:55:38,"facebook.com"
2020-12-11 19:55:37,"youtube.com"
2020-12-11 19:55:37,"google.com"
2020-12-11 19:55:35,"youtube.com"
2020-12-11 19:55:32,"google.com"
2020-12-11 19:55:32,"google.com"
2020-12-11 19:55:32,"facebook.com"
2020-12-11 19:06:35,"google.com"
2020-12-11 19:01:03,"google.com"
2020-12-11 18:55:33,"google.com"
2020-12-11 18:47:04,"google.com"
2020-12-11 18:46:58,"google.com"
2020-12-11 18:41:41,"google.com"
2020-12-11 18:37:14,"facebook.com"
2020-12-11 18:37:04,"facebook.com"
2020-12-11 18:36:24,"facebook.com"
2020-12-11 18:36:20,"facebook.com"
2020-12-11 18:35:21,"google.com"
2020-12-11 18:33:55,"google.com"
2020-12-11 18:33:50,"google.com"
2020-12-11 18:13:53,"google.com"
2020-12-11 18:13:50,"google.com"
2020-12-11 17:57:31,"google.com"
2020-12-11 17:57:22,"google.com"
2020-12-11 17:50:17,"google.com"
2020-12-11 17:42:44,"google.com"
2020-12-11 17:38:52,"stackoverflow.com"
2020-12-11 17:38:51,"google.com"
2020-12-11 17:35:43,"google.com"
2020-12-11 17:26:53,"facebook.com"
2020-12-11 17:26:46,"facebook.com"
2020-12-11 17:25:25,"facebook.com"
2020-12-11 17:24:56,"facebook.com"
2020-12-11 17:24:08,"google.com"
2020-12-11 17:24:05,"google.com"
2020-12-11 17:24:03,"google.com"
2020-12-11 17:24:01,"google.com"
2020-12-11 17:23:57,"google.com"
2020-12-11 17:23:55,"google.com"
2020-12-11 17:23:47,"google.com"
2020-12-11 17:23:44,"google.com"
2020-12-11 17:23:41,"facebook.com"
2020-12-11 17:23:40,"github.com"
2020-12-11 17:23:40,"facebook.com"
2020-12-11 17:20:37,"google.com"
2020-12-11 17:18:19,"google.com"
2020-12-11 17:01:02,"google.com"
2020-12-11 17:01:02,"google.com"
2020-12-11 15:18:54,"google.com"
2020-12-11 15:18:43,"google.com"
2020-12-11 13:14:29,"google.com"
2020-12-11 13:14:25,"google.com"
2020-12-11 13:13:04,"google.com"
2020-12-11 12:56:06,"youtube.com"
2020-12-11 12:56:01,"youtube.com"
2020-12-11 12:56:01,"youtube.com"
2020-12-11 11:50:30,"google.com"
2020-12-11 11:25:52,"wikipedia.org"
2020-12-11 11:02:28,"google.com"
2020-12-11 11:01:05,"google.com"
2020-12-11 10:42:25,"youtube.com"
2020-12-11 10:42:15,"google.com"
2020-12-11 10:42:04,"google.com"
2020-12-11 10:41:57,"youtube.com"
2020-12-11 09:47:20,"stackoverflow.com"
2020-12-11 09:47:18,"google.com"
2020-12-11 09:46:43,"stackoverflow.com"
2020-12-11 09:46:42,"google.com"
2020-12-11 09:23:10,"wikipedia.org"
2020-12-11 09:23:07,"wikipedia.org"
2020-12-11 09:23:06,"google.com"
2020-12-11 09:23:04,"pw.edu.pl"
2020-12-11 09:23:01,"wikipedia.org"
2020-12-11 09:22:59,"google.com"
2020-12-11 09:22:57,"google.com"
2020-12-11 09:22:50,"youtube.com"
2020-12-11 09:22:49,"facebook.com"
2020-12-11 09:22:47,"youtube.com"
2020-12-11 09:22:43,"google.com"
2020-12-11 09:22:37,"stackoverflow.com"
2020-12-11 09:22:36,"google.com"
2020-12-11 09:22:29,"google.com"
2020-12-11 09:17:16,"google.com"
2020-12-11 09:17:06,"google.com"
2020-12-11 09:17:00,"google.com"
2020-12-11 08:51:47,"wikipedia.org"
2020-12-11 08:51:45,"wikipedia.org"
2020-12-11 08:51:03,"wikipedia.org"
2020-12-10 23:02:34,"google.com"
2020-12-10 23:01:17,"github.com"
2020-12-10 23:01:04,"google.com"
2020-12-10 23:00:47,"youtube.com"
2020-12-10 23:00:35,"google.com"
2020-12-10 23:00:34,"google.com"
2020-12-10 23:00:30,"google.com"
2020-12-10 23:00:24,"google.com"
2020-12-10 22:58:16,"google.com"
2020-12-10 22:57:52,"google.com"
2020-12-10 22:52:44,"google.com"
2020-12-10 22:52:32,"google.com"
2020-12-10 22:51:20,"google.com"
2020-12-10 22:51:19,"google.com"
2020-12-10 20:46:41,"google.com"
2020-12-10 20:45:52,"google.com"
2020-12-10 20:39:54,"google.com"
2020-12-10 20:39:26,"google.com"
2020-12-10 20:35:45,"google.com"
2020-12-10 20:31:56,"google.com"
2020-12-10 20:30:29,"wikipedia.org"
2020-12-10 20:30:22,"google.com"
2020-12-10 20:30:19,"google.com"
2020-12-10 20:30:18,"wikipedia.org"
2020-12-10 20:30:03,"wikipedia.org"
2020-12-10 20:29:40,"wikipedia.org"
2020-12-10 20:29:04,"wikipedia.org"
2020-12-10 20:28:46,"wikipedia.org"
2020-12-10 20:28:28,"google.com"
2020-12-10 20:28:16,"google.com"
2020-12-10 19:42:03,"google.com"
2020-12-10 19:38:28,"google.com"
2020-12-10 19:37:13,"google.com"
2020-12-10 19:03:02,"google.com"
2020-12-10 19:02:35,"google.com"
2020-12-10 18:43:39,"google.com"
2020-12-10 18:38:01,"google.com"
2020-12-10 18:36:37,"google.com"
2020-12-10 18:35:59,"google.com"
2020-12-10 18:34:51,"google.com"
2020-12-10 18:34:41,"google.com"
2020-12-10 18:34:35,"google.com"
2020-12-10 18:34:23,"google.com"
2020-12-10 18:33:42,"google.com"
2020-12-10 18:33:36,"google.com"
2020-12-10 18:32:12,"google.com"
2020-12-10 18:31:51,"google.com"
2020-12-10 18:31:02,"google.com"
2020-12-10 18:29:19,"google.com"
2020-12-10 18:28:41,"facebook.com"
2020-12-10 18:28:40,"facebook.com"
2020-12-10 18:22:27,"google.com"
2020-12-10 18:21:05,"google.com"
2020-12-10 18:20:20,"google.com"
2020-12-10 18:15:40,"google.com"
2020-12-10 18:14:48,"google.com"
2020-12-10 18:13:07,"google.com"
2020-12-10 18:11:56,"youtube.com"
2020-12-10 18:11:53,"youtube.com"
2020-12-10 18:11:53,"youtube.com"
2020-12-10 18:11:45,"youtube.com"
2020-12-10 18:11:20,"google.com"
2020-12-10 18:09:47,"google.com"
2020-12-10 18:09:35,"google.com"
2020-12-10 18:00:10,"facebook.com"
2020-12-10 18:00:04,"facebook.com"
2020-12-10 17:47:45,"google.com"
2020-12-10 17:47:40,"google.com"
2020-12-10 17:26:12,"google.com"
2020-12-10 17:26:12,"google.com"
2020-12-10 17:18:44,"wikipedia.org"
2020-12-10 17:18:40,"wikipedia.org"
2020-12-10 17:18:40,"google.com"
2020-12-10 17:18:33,"google.com"
2020-12-10 17:18:32,"google.com"
2020-12-10 17:18:25,"pw.edu.pl"
2020-12-10 17:18:16,"youtube.com"
2020-12-10 17:18:12,"wikipedia.org"
2020-12-10 17:18:10,"google.com"
2020-12-10 17:18:08,"facebook.com"
2020-12-10 17:18:08,"google.com"
2020-12-10 17:17:57,"facebook.com"
2020-12-10 15:59:03,"google.com"
2020-12-10 15:57:31,"google.com"
2020-12-10 15:55:56,"google.com"
2020-12-10 15:55:47,"google.com"
2020-12-10 15:55:45,"google.com"
2020-12-10 15:55:37,"google.com"
2020-12-10 15:55:36,"google.com"
2020-12-10 15:55:11,"google.com"
2020-12-10 15:55:09,"google.com"
2020-12-10 15:54:57,"google.com"
2020-12-10 15:51:31,"google.com"
2020-12-10 15:49:40,"google.com"
2020-12-10 15:49:34,"google.com"
2020-12-10 15:49:14,"google.com"
2020-12-10 15:33:03,"google.com"
2020-12-10 15:32:56,"google.com"
2020-12-10 15:32:46,"google.com"
2020-12-10 15:32:11,"google.com"
2020-12-10 15:31:04,"google.com"
2020-12-10 15:30:58,"google.com"
2020-12-10 15:30:32,"google.com"
2020-12-10 15:30:21,"google.com"
2020-12-10 15:30:09,"google.com"
2020-12-10 15:29:56,"google.com"
2020-12-10 15:29:51,"google.com"
2020-12-10 15:29:47,"google.com"
2020-12-10 15:29:38,"google.com"
2020-12-10 15:28:14,"facebook.com"
2020-12-10 15:27:06,"facebook.com"
2020-12-10 11:40:36,"wikipedia.org"
2020-12-10 11:40:31,"google.com"
2020-12-10 11:31:22,"wikipedia.org"
2020-12-10 11:31:14,"wikipedia.org"
2020-12-10 11:31:07,"google.com"
2020-12-10 11:31:03,"google.com"
2020-12-10 11:31:02,"facebook.com"
2020-12-10 11:30:55,"pw.edu.pl"
2020-12-10 11:30:44,"youtube.com"
2020-12-10 09:17:58,"google.com"
2020-12-10 09:17:52,"google.com"
2020-12-10 09:17:46,"google.com"
2020-12-10 09:17:45,"google.com"
2020-12-10 09:17:42,"google.com"
2020-12-10 09:17:18,"google.com"
2020-12-10 09:17:13,"google.com"
2020-12-09 22:07:30,"github.com"
2020-12-09 22:07:29,"github.com"
2020-12-09 22:07:27,"github.com"
2020-12-09 22:06:59,"github.com"
2020-12-09 22:06:58,"github.com"
2020-12-09 22:06:10,"github.com"
2020-12-09 22:03:01,"github.com"
2020-12-09 21:21:32,"google.com"
2020-12-09 16:26:49,"google.com"
2020-12-09 16:23:07,"google.com"
2020-12-09 16:23:05,"google.com"
2020-12-09 16:20:32,"google.com"
2020-12-09 16:20:30,"google.com"
2020-12-09 15:39:43,"google.com"
2020-12-09 15:39:40,"google.com"
2020-12-09 15:39:37,"google.com"
2020-12-09 15:39:36,"facebook.com"
2020-12-09 15:39:35,"facebook.com"
2020-12-09 15:18:07,"wikipedia.org"
2020-12-09 15:17:56,"google.com"
2020-12-09 15:17:50,"google.com"
2020-12-09 15:16:35,"google.com"
2020-12-09 15:02:32,"google.com"
2020-12-09 14:58:37,"facebook.com"
2020-12-09 14:58:30,"facebook.com"
2020-12-09 14:56:31,"facebook.com"
2020-12-09 14:56:29,"facebook.com"
2020-12-09 14:55:26,"facebook.com"
2020-12-09 14:53:44,"google.com"
2020-12-09 14:52:45,"facebook.com"
2020-12-09 14:52:40,"facebook.com"
2020-12-09 14:06:16,"pw.edu.pl"
2020-12-09 14:06:12,"pw.edu.pl"
2020-12-09 13:56:42,"google.com"
2020-12-09 13:52:37,"pw.edu.pl"
2020-12-09 13:51:58,"pw.edu.pl"
2020-12-09 13:51:55,"pw.edu.pl"
2020-12-09 13:51:52,"pw.edu.pl"
2020-12-09 12:29:16,"google.com"
2020-12-09 11:44:22,"wikipedia.org"
2020-12-09 11:44:19,"wikipedia.org"
2020-12-09 11:43:54,"wikipedia.org"
2020-12-09 11:43:47,"wikipedia.org"
2020-12-09 11:43:09,"wikipedia.org"
2020-12-09 11:41:07,"wikipedia.org"
2020-12-09 11:41:06,"google.com"
2020-12-09 11:40:52,"google.com"
2020-12-09 11:39:25,"google.com"
2020-12-09 11:39:08,"google.com"
2020-12-09 11:38:51,"google.com"
2020-12-09 11:38:27,"google.com"
2020-12-09 11:38:11,"wikipedia.org"
2020-12-09 11:38:10,"google.com"
2020-12-09 11:28:22,"facebook.com"
2020-12-09 11:27:39,"facebook.com"
2020-12-09 11:27:13,"facebook.com"
2020-12-09 11:22:15,"google.com"
2020-12-09 11:21:36,"google.com"
2020-12-09 11:20:11,"wikipedia.org"
2020-12-09 11:19:57,"google.com"
2020-12-09 11:14:54,"google.com"
2020-12-09 11:14:37,"stackoverflow.com"
2020-12-09 11:14:35,"google.com"
2020-12-09 11:14:14,"google.com"
2020-12-09 10:34:00,"google.com"
2020-12-09 10:24:14,"google.com"
2020-12-09 10:18:42,"google.com"
2020-12-09 10:18:36,"google.com"
2020-12-09 09:58:02,"pw.edu.pl"
2020-12-09 09:47:17,"youtube.com"
2020-12-09 09:47:06,"google.com"
2020-12-09 09:47:03,"facebook.com"
2020-12-09 09:46:57,"wikipedia.org"
2020-12-09 09:33:33,"google.com"
2020-12-09 09:33:11,"google.com"
2020-12-09 09:33:06,"google.com"
2020-12-08 22:06:01,"pw.edu.pl"
2020-12-08 21:56:06,"pw.edu.pl"
2020-12-08 21:51:09,"pw.edu.pl"
2020-12-08 21:50:27,"pw.edu.pl"
2020-12-08 21:50:21,"pw.edu.pl"
2020-12-08 21:50:16,"pw.edu.pl"
2020-12-08 21:50:13,"pw.edu.pl"
2020-12-08 21:50:10,"pw.edu.pl"
2020-12-08 21:50:08,"google.com"
2020-12-08 21:33:19,"wikipedia.org"
2020-12-08 21:33:17,"wikipedia.org"
2020-12-08 21:26:31,"google.com"
2020-12-08 21:26:31,"google.com"
2020-12-08 21:19:37,"wikipedia.org"
2020-12-08 21:17:47,"wikipedia.org"
2020-12-08 21:17:45,"wikipedia.org"
2020-12-08 21:17:20,"wikipedia.org"
2020-12-08 21:17:19,"google.com"
2020-12-08 21:14:04,"wikipedia.org"
2020-12-08 21:11:24,"wikipedia.org"
2020-12-08 21:11:19,"google.com"
2020-12-08 21:10:58,"google.com"
2020-12-08 21:10:07,"google.com"
2020-12-08 21:10:01,"google.com"
2020-12-08 21:09:45,"google.com"
2020-12-08 21:07:24,"google.com"
2020-12-08 21:05:11,"google.com"
2020-12-08 20:59:44,"wikipedia.org"
2020-12-08 20:59:43,"google.com"
2020-12-08 20:51:41,"google.com"
2020-12-08 20:51:34,"google.com"
2020-12-08 20:51:27,"wikipedia.org"
2020-12-08 20:51:19,"wikipedia.org"
2020-12-08 20:51:18,"google.com"
2020-12-08 20:01:12,"wikipedia.org"
2020-12-08 20:01:11,"google.com"
2020-12-08 19:59:29,"google.com"
2020-12-08 19:57:27,"stackoverflow.com"
2020-12-08 19:57:26,"google.com"
2020-12-08 19:44:35,"google.com"
2020-12-08 19:35:16,"google.com"
2020-12-08 19:34:06,"facebook.com"
2020-12-08 18:57:07,"facebook.com"
2020-12-08 18:11:55,"google.com"
2020-12-08 18:11:54,"google.com"
2020-12-08 18:09:49,"google.com"
2020-12-08 18:08:35,"google.com"
2020-12-08 18:08:30,"wikipedia.org"
2020-12-08 18:08:18,"google.com"
2020-12-08 17:35:03,"google.com"
2020-12-08 17:23:41,"wikipedia.org"
2020-12-08 17:23:40,"google.com"
2020-12-08 17:15:05,"google.com"
2020-12-08 17:12:33,"google.com"
2020-12-08 17:12:10,"google.com"
2020-12-08 17:12:08,"google.com"
2020-12-08 17:11:23,"google.com"
2020-12-08 16:44:56,"pw.edu.pl"
2020-12-08 16:44:55,"pw.edu.pl"
2020-12-08 16:44:54,"pw.edu.pl"
2020-12-08 16:44:53,"pw.edu.pl"
2020-12-08 16:44:52,"pw.edu.pl"
2020-12-08 16:44:51,"pw.edu.pl"
2020-12-08 16:44:50,"pw.edu.pl"
2020-12-08 16:44:48,"pw.edu.pl"
2020-12-08 16:44:44,"pw.edu.pl"
2020-12-08 16:44:42,"pw.edu.pl"
2020-12-08 15:36:21,"google.com"
2020-12-08 15:36:21,"google.com"
2020-12-08 15:28:52,"google.com"
2020-12-08 15:28:29,"google.com"
2020-12-08 15:27:56,"stackoverflow.com"
2020-12-08 15:27:56,"google.com"
2020-12-08 15:26:41,"google.com"
2020-12-08 15:26:22,"google.com"
2020-12-08 15:26:18,"google.com"
2020-12-08 15:26:15,"google.com"
2020-12-08 15:26:10,"google.com"
2020-12-08 15:26:00,"google.com"
2020-12-08 15:25:50,"github.com"
2020-12-08 15:25:47,"facebook.com"
2020-12-08 15:25:46,"facebook.com"
2020-12-08 15:21:26,"google.com"
2020-12-08 15:21:26,"google.com"
2020-12-08 15:21:10,"google.com"
2020-12-08 15:21:10,"google.com"
2020-12-08 14:37:29,"pw.edu.pl"
2020-12-08 14:37:28,"pw.edu.pl"
2020-12-08 14:37:23,"pw.edu.pl"
2020-12-08 14:37:20,"pw.edu.pl"
2020-12-08 14:37:11,"pw.edu.pl"
2020-12-08 14:37:07,"pw.edu.pl"
2020-12-08 14:36:56,"pw.edu.pl"
2020-12-08 14:36:54,"pw.edu.pl"
2020-12-08 12:55:12,"google.com"
2020-12-08 12:47:04,"google.com"
2020-12-08 12:44:38,"wikipedia.org"
2020-12-08 12:32:17,"youtube.com"
2020-12-08 12:23:05,"stackoverflow.com"
2020-12-08 12:16:30,"google.com"
2020-12-08 12:07:10,"google.com"
2020-12-08 11:56:20,"google.com"
2020-12-08 11:56:19,"google.com"
2020-12-08 10:50:33,"stackoverflow.com"
2020-12-08 10:50:26,"google.com"
2020-12-08 10:47:36,"google.com"
2020-12-08 10:44:48,"google.com"
2020-12-08 10:44:29,"google.com"
2020-12-08 10:43:02,"google.com"
2020-12-08 10:42:36,"google.com"
2020-12-08 10:06:03,"pw.edu.pl"
2020-12-08 10:06:02,"pw.edu.pl"
2020-12-08 10:00:49,"pw.edu.pl"
2020-12-08 10:00:44,"pw.edu.pl"
2020-12-08 09:59:38,"pw.edu.pl"
2020-12-08 09:59:36,"pw.edu.pl"
2020-12-08 09:58:42,"pw.edu.pl"
2020-12-08 09:58:40,"pw.edu.pl"
2020-12-08 09:50:54,"pw.edu.pl"
2020-12-08 09:50:51,"pw.edu.pl"
2020-12-08 09:49:44,"facebook.com"
2020-12-08 09:49:24,"facebook.com"
2020-12-08 09:47:42,"facebook.com"
2020-12-08 09:47:41,"facebook.com"
2020-12-08 09:46:28,"pw.edu.pl"
2020-12-08 09:46:24,"youtube.com"
2020-12-08 09:46:22,"pw.edu.pl"
2020-12-08 09:46:22,"pw.edu.pl"
2020-12-08 09:46:13,"facebook.com"
2020-12-08 08:21:06,"pw.edu.pl"
2020-12-08 08:21:03,"pw.edu.pl"
2020-12-07 22:35:12,"pw.edu.pl"
2020-12-07 22:35:08,"pw.edu.pl"
2020-12-07 22:23:33,"google.com"
2020-12-07 22:23:14,"google.com"
2020-12-07 20:20:28,"pw.edu.pl"
2020-12-07 20:20:15,"facebook.com"
2020-12-07 20:20:06,"pw.edu.pl"
2020-12-07 20:20:05,"youtube.com"
2020-12-07 20:19:58,"pw.edu.pl"
2020-12-07 19:42:24,"stackoverflow.com"
2020-12-07 19:42:23,"google.com"
2020-12-07 19:20:36,"stackoverflow.com"
2020-12-07 19:20:35,"google.com"
2020-12-07 19:09:03,"google.com"
2020-12-07 19:09:03,"google.com"
2020-12-07 18:31:31,"youtube.com"
2020-12-07 18:31:21,"youtube.com"
2020-12-07 18:30:47,"youtube.com"
2020-12-07 17:58:21,"google.com"
2020-12-07 17:55:58,"wikipedia.org"
2020-12-07 17:55:57,"google.com"
2020-12-07 17:55:53,"google.com"
2020-12-07 17:35:34,"google.com"
2020-12-07 17:35:00,"google.com"
2020-12-07 17:04:21,"google.com"
2020-12-07 17:03:43,"google.com"
2020-12-07 16:35:31,"facebook.com"
2020-12-07 16:35:31,"facebook.com"
2020-12-07 16:35:07,"wikipedia.org"
2020-12-07 16:35:02,"google.com"
2020-12-07 16:31:50,"stackoverflow.com"
2020-12-07 16:31:49,"google.com"
2020-12-07 16:27:32,"pw.edu.pl"
2020-12-07 16:25:37,"pw.edu.pl"
2020-12-07 16:25:35,"pw.edu.pl"
2020-12-07 16:25:34,"pw.edu.pl"
2020-12-07 16:01:35,"facebook.com"
2020-12-07 15:55:37,"google.com"
2020-12-07 15:48:52,"github.com"
2020-12-07 15:48:48,"github.com"
2020-12-07 15:47:43,"github.com"
2020-12-07 15:47:41,"github.com"
2020-12-07 15:47:39,"github.com"
2020-12-07 15:47:39,"github.com"
2020-12-07 15:47:28,"github.com"
2020-12-07 15:47:24,"github.com"
2020-12-07 15:46:59,"github.com"
2020-12-07 15:46:56,"github.com"
2020-12-07 15:43:14,"google.com"
2020-12-07 15:43:14,"google.com"
2020-12-07 15:42:59,"github.com"
2020-12-07 15:42:56,"github.com"
2020-12-07 15:25:49,"facebook.com"
2020-12-07 15:25:40,"facebook.com"
2020-12-07 15:23:56,"facebook.com"
2020-12-07 15:23:40,"facebook.com"
2020-12-07 15:23:36,"facebook.com"
2020-12-07 15:22:19,"facebook.com"
2020-12-07 15:22:12,"facebook.com"
2020-12-07 15:13:09,"facebook.com"
2020-12-07 15:13:02,"facebook.com"
2020-12-07 15:04:08,"facebook.com"
2020-12-07 15:04:02,"facebook.com"
2020-12-07 14:56:51,"facebook.com"
2020-12-07 14:56:30,"facebook.com"
2020-12-07 14:56:28,"facebook.com"
2020-12-07 14:55:23,"facebook.com"
2020-12-07 14:54:26,"facebook.com"
2020-12-07 14:54:12,"facebook.com"
2020-12-07 14:52:04,"facebook.com"
2020-12-07 14:52:00,"facebook.com"
2020-12-07 14:51:35,"facebook.com"
2020-12-07 14:51:25,"facebook.com"
2020-12-07 14:51:19,"facebook.com"
2020-12-07 14:51:15,"facebook.com"
2020-12-07 14:51:04,"facebook.com"
2020-12-07 14:01:33,"github.com"
2020-12-07 13:58:05,"github.com"
2020-12-07 13:58:04,"github.com"
2020-12-07 13:58:03,"github.com"
2020-12-07 13:57:50,"github.com"
2020-12-07 13:57:41,"github.com"
2020-12-07 13:57:06,"github.com"
2020-12-07 13:57:05,"github.com"
2020-12-07 13:56:45,"github.com"
2020-12-07 13:49:35,"youtube.com"
2020-12-07 13:49:31,"youtube.com"
2020-12-07 13:46:10,"youtube.com"
2020-12-07 13:46:10,"youtube.com"
2020-12-07 13:45:45,"youtube.com"
2020-12-07 13:44:14,"google.com"
2020-12-07 13:34:47,"pw.edu.pl"
2020-12-07 13:34:45,"pw.edu.pl"
2020-12-07 13:34:38,"youtube.com"
2020-12-07 13:34:27,"pw.edu.pl"
2020-12-07 13:34:23,"pw.edu.pl"
2020-12-07 13:32:25,"facebook.com"
2020-12-07 13:32:19,"facebook.com"
2020-12-07 13:31:08,"facebook.com"
2020-12-07 13:31:02,"facebook.com"
2020-12-07 13:21:03,"facebook.com"
2020-12-07 13:18:59,"facebook.com"
2020-12-07 13:18:59,"facebook.com"
2020-12-07 13:17:42,"facebook.com"
2020-12-07 13:17:32,"facebook.com"
2020-12-07 13:13:48,"facebook.com"
2020-12-07 13:13:43,"facebook.com"
2020-12-07 13:11:58,"facebook.com"
2020-12-07 13:11:56,"facebook.com"
2020-12-07 13:11:34,"facebook.com"
2020-12-07 13:11:33,"facebook.com"
2020-12-07 12:51:55,"pw.edu.pl"
2020-12-07 12:51:53,"pw.edu.pl"
2020-12-07 12:51:47,"pw.edu.pl"
2020-12-07 12:51:05,"pw.edu.pl"
2020-12-07 12:51:01,"pw.edu.pl"
2020-12-07 12:50:56,"pw.edu.pl"
2020-12-07 12:50:52,"pw.edu.pl"
2020-12-07 11:58:14,"google.com"
2020-12-07 11:37:27,"google.com"
2020-12-07 11:33:47,"google.com"
2020-12-07 11:24:55,"google.com"
2020-12-07 11:18:59,"google.com"
2020-12-07 11:18:59,"google.com"
2020-12-07 11:07:29,"pw.edu.pl"
2020-12-07 11:07:18,"wikipedia.org"
2020-12-07 11:06:57,"google.com"
2020-12-07 11:06:56,"google.com"
2020-12-07 11:06:53,"google.com"
2020-12-07 11:06:52,"google.com"
2020-12-07 11:06:13,"pw.edu.pl"
2020-12-07 10:49:37,"youtube.com"
2020-12-07 10:49:37,"youtube.com"
2020-12-07 10:48:52,"pw.edu.pl"
2020-12-07 10:48:44,"pw.edu.pl"
2020-12-07 10:46:33,"pw.edu.pl"
2020-12-07 10:46:29,"pw.edu.pl"
2020-12-07 10:46:25,"pw.edu.pl"
2020-12-07 10:42:41,"google.com"
2020-12-07 10:42:22,"wikipedia.org"
2020-12-07 10:42:16,"youtube.com"
2020-12-07 10:41:58,"google.com"
2020-12-07 10:41:45,"google.com"
2020-12-07 10:41:41,"google.com"
2020-12-07 10:25:27,"stackoverflow.com"
2020-12-07 08:48:02,"pw.edu.pl"
2020-12-06 21:44:31,"pw.edu.pl"
2020-12-06 19:18:03,"google.com"
2020-12-06 19:17:48,"google.com"
2020-12-06 19:17:34,"google.com"
2020-12-06 19:17:25,"google.com"
2020-12-06 19:17:20,"google.com"
2020-12-06 18:58:27,"google.com"
2020-12-06 18:44:00,"google.com"
2020-12-06 18:42:10,"google.com"
2020-12-06 18:42:00,"stackoverflow.com"
2020-12-06 18:41:59,"google.com"
2020-12-06 18:33:32,"google.com"
2020-12-06 18:33:05,"google.com"
2020-12-06 18:30:25,"google.com"
2020-12-06 18:28:37,"stackoverflow.com"
2020-12-06 18:28:36,"google.com"
2020-12-06 18:23:58,"google.com"
2020-12-06 18:23:55,"google.com"
2020-12-06 18:21:50,"google.com"
2020-12-06 18:21:48,"google.com"
2020-12-06 18:21:43,"google.com"
2020-12-06 18:14:31,"google.com"
2020-12-06 17:56:02,"google.com"
2020-12-06 17:56:02,"google.com"
2020-12-06 17:54:00,"google.com"
2020-12-06 17:53:47,"wikipedia.org"
2020-12-06 17:53:33,"youtube.com"
2020-12-06 17:53:15,"google.com"
2020-12-06 17:53:09,"google.com"
2020-12-06 17:53:07,"google.com"
2020-12-06 17:40:42,"google.com"
2020-12-06 17:39:57,"google.com"
2020-12-06 17:36:44,"google.com"
2020-12-06 17:36:43,"google.com"
2020-12-06 17:29:31,"google.com"
2020-12-06 17:26:18,"google.com"
2020-12-06 17:26:17,"google.com"
2020-12-06 17:25:15,"google.com"
2020-12-06 17:25:13,"google.com"
2020-12-06 17:19:58,"facebook.com"
2020-12-06 17:19:53,"facebook.com"
2020-12-06 17:17:02,"google.com"
2020-12-06 17:16:53,"google.com"
2020-12-06 17:03:45,"google.com"
2020-12-06 17:03:04,"google.com"
2020-12-06 16:49:00,"google.com"
2020-12-06 16:43:28,"google.com"
2020-12-06 16:41:23,"stackoverflow.com"
2020-12-06 16:41:22,"google.com"
2020-12-06 16:37:28,"google.com"
2020-12-06 16:31:56,"google.com"
2020-12-06 16:31:30,"google.com"
2020-12-06 16:26:54,"google.com"
2020-12-06 16:26:51,"google.com"
2020-12-06 16:18:43,"google.com"
2020-12-06 16:15:52,"google.com"
2020-12-06 16:15:42,"google.com"
2020-12-06 16:15:34,"google.com"
2020-12-06 16:15:23,"google.com"
2020-12-06 16:06:47,"google.com"
2020-12-06 15:47:52,"stackoverflow.com"
2020-12-06 15:47:51,"google.com"
2020-12-06 15:46:55,"stackoverflow.com"
2020-12-06 15:46:50,"google.com"
2020-12-06 15:41:05,"google.com"
2020-12-06 15:41:05,"google.com"
2020-12-06 14:49:29,"github.com"
2020-12-06 14:49:27,"github.com"
2020-12-06 14:49:25,"github.com"
2020-12-06 14:49:04,"github.com"
2020-12-06 14:34:56,"wikipedia.org"
2020-12-06 14:19:18,"google.com"
2020-12-06 14:18:48,"wikipedia.org"
2020-12-06 14:18:47,"google.com"
2020-12-06 13:47:29,"google.com"
2020-12-06 12:33:54,"google.com"
2020-12-06 11:32:04,"google.com"
2020-12-06 11:32:04,"google.com"
2020-12-06 11:31:53,"google.com"
2020-12-06 11:31:15,"wikipedia.org"
2020-12-06 11:31:12,"google.com"
2020-12-06 11:27:28,"google.com"
2020-12-06 11:26:59,"google.com"
2020-12-06 11:22:14,"google.com"
2020-12-06 11:00:32,"wikipedia.org"
2020-12-06 11:00:24,"wikipedia.org"
2020-12-06 10:59:58,"wikipedia.org"
2020-12-06 10:59:50,"google.com"
2020-12-06 10:59:20,"google.com"
2020-12-06 10:59:18,"google.com"
2020-12-06 10:59:12,"google.com"
2020-12-06 10:59:08,"pw.edu.pl"
2020-12-06 10:59:05,"google.com"
2020-12-06 10:59:04,"google.com"
2020-12-06 10:59:03,"pw.edu.pl"
2020-12-06 10:58:46,"google.com"
2020-12-06 10:58:26,"youtube.com"
2020-12-06 10:58:24,"wikipedia.org"
2020-12-06 10:58:22,"pw.edu.pl"
2020-12-06 10:58:22,"pw.edu.pl"
2020-12-06 10:58:12,"google.com"
2020-12-05 22:05:53,"pw.edu.pl"
2020-12-05 22:05:52,"pw.edu.pl"
2020-12-05 21:59:02,"pw.edu.pl"
2020-12-05 21:59:00,"pw.edu.pl"
2020-12-05 21:58:23,"pw.edu.pl"
2020-12-05 21:58:20,"pw.edu.pl"
2020-12-05 21:53:06,"pw.edu.pl"
2020-12-05 21:53:03,"pw.edu.pl"
2020-12-05 21:46:54,"pw.edu.pl"
2020-12-05 21:46:02,"pw.edu.pl"
2020-12-05 21:45:55,"pw.edu.pl"
2020-12-05 20:46:40,"wikipedia.org"
2020-12-05 20:46:38,"google.com"
2020-12-05 19:28:19,"pw.edu.pl"
2020-12-05 19:28:17,"pw.edu.pl"
2020-12-05 18:58:29,"google.com"
2020-12-05 17:31:41,"pw.edu.pl"
2020-12-05 17:31:35,"pw.edu.pl"
2020-12-05 16:56:53,"pw.edu.pl"
2020-12-05 16:56:41,"pw.edu.pl"
2020-12-05 16:56:38,"wikipedia.org"
2020-12-05 16:12:51,"youtube.com"
2020-12-05 16:11:43,"youtube.com"
2020-12-05 16:09:59,"youtube.com"
2020-12-05 16:04:37,"youtube.com"
2020-12-05 16:00:16,"youtube.com"
2020-12-05 16:00:16,"youtube.com"
2020-12-05 16:00:08,"google.com"
2020-12-05 15:56:03,"facebook.com"
2020-12-05 15:56:03,"facebook.com"
2020-12-05 15:56:02,"facebook.com"
2020-12-05 15:55:55,"facebook.com"
2020-12-05 15:55:54,"facebook.com"
2020-12-05 15:05:26,"pw.edu.pl"
2020-12-05 15:05:23,"pw.edu.pl"
2020-12-05 14:50:44,"google.com"
2020-12-05 14:50:44,"google.com"
2020-12-05 14:20:51,"wikipedia.org"
2020-12-05 14:20:44,"google.com"
2020-12-05 14:20:43,"google.com"
2020-12-05 14:20:29,"google.com"
2020-12-05 14:20:28,"google.com"
2020-12-05 14:14:34,"pw.edu.pl"
2020-12-05 14:14:30,"pw.edu.pl"
2020-12-05 14:13:00,"pw.edu.pl"
2020-12-05 14:12:40,"pw.edu.pl"
2020-12-05 13:51:37,"wikipedia.org"
2020-12-05 13:51:13,"wikipedia.org"
2020-12-05 13:50:59,"wikipedia.org"
2020-12-05 13:50:55,"google.com"
2020-12-05 13:36:14,"pw.edu.pl"
2020-12-05 13:36:12,"pw.edu.pl"
2020-12-05 13:26:53,"pw.edu.pl"
2020-12-05 13:26:51,"pw.edu.pl"
2020-12-05 13:22:51,"google.com"
2020-12-05 13:22:46,"google.com"
2020-12-05 13:22:44,"pw.edu.pl"
2020-12-05 13:22:40,"google.com"
2020-12-05 13:22:35,"pw.edu.pl"
2020-12-05 13:22:34,"google.com"
2020-12-05 13:22:25,"youtube.com"
2020-12-05 13:22:12,"google.com"
2020-12-05 13:20:35,"google.com"
2020-12-05 13:20:06,"google.com"
2020-12-05 13:19:34,"google.com"
2020-12-05 12:54:49,"google.com"
2020-12-05 12:08:26,"google.com"
2020-12-05 12:07:43,"stackoverflow.com"
2020-12-05 12:07:42,"google.com"
2020-12-05 12:02:41,"stackoverflow.com"
2020-12-05 12:02:39,"google.com"
2020-12-05 12:02:24,"google.com"
2020-12-05 12:00:02,"google.com"
2020-12-05 11:59:51,"google.com"
2020-12-05 11:59:46,"google.com"
2020-12-05 11:56:57,"google.com"
2020-12-04 22:00:59,"google.com"
2020-12-04 21:44:56,"google.com"
2020-12-04 21:44:51,"google.com"
2020-12-04 21:44:48,"google.com"
2020-12-04 21:44:46,"google.com"
2020-12-04 21:44:43,"google.com"
2020-12-04 21:25:59,"youtube.com"
2020-12-04 21:25:59,"youtube.com"
2020-12-04 21:25:50,"youtube.com"
2020-12-04 21:25:40,"google.com"
2020-12-04 21:22:34,"youtube.com"
2020-12-04 21:22:26,"google.com"
2020-12-04 21:15:06,"google.com"
2020-12-04 21:14:54,"google.com"
2020-12-04 21:14:51,"google.com"
2020-12-04 21:14:48,"google.com"
2020-12-04 21:14:45,"google.com"
2020-12-04 21:14:44,"pw.edu.pl"
2020-12-04 21:14:41,"google.com"
2020-12-04 21:14:35,"google.com"
2020-12-04 21:14:30,"google.com"
2020-12-04 21:14:24,"pw.edu.pl"
2020-12-04 21:14:22,"youtube.com"
2020-12-04 21:14:15,"google.com"
2020-12-04 19:12:27,"google.com"
2020-12-04 19:12:17,"google.com"
2020-12-04 19:11:44,"google.com"
2020-12-04 19:11:41,"google.com"
2020-12-04 19:11:37,"google.com"
2020-12-04 19:11:23,"google.com"
2020-12-04 19:11:00,"google.com"
2020-12-04 17:58:23,"google.com"
2020-12-04 17:51:23,"google.com"
2020-12-04 17:50:12,"google.com"
2020-12-04 17:49:31,"google.com"
2020-12-04 17:27:46,"stackoverflow.com"
2020-12-04 17:27:45,"google.com"
2020-12-04 17:25:48,"stackoverflow.com"
2020-12-04 17:25:47,"google.com"
2020-12-04 17:17:02,"stackoverflow.com"
2020-12-04 17:17:01,"google.com"
2020-12-04 17:14:37,"google.com"
2020-12-04 17:14:37,"google.com"
2020-12-04 16:35:16,"google.com"
2020-12-04 15:29:11,"google.com"
2020-12-04 15:23:10,"google.com"
2020-12-04 13:49:32,"google.com"
2020-12-04 12:07:13,"google.com"
2020-12-04 12:07:12,"google.com"
2020-12-04 12:01:34,"youtube.com"
2020-12-04 12:01:32,"google.com"
2020-12-04 11:48:20,"google.com"
2020-12-04 11:47:11,"facebook.com"
2020-12-04 11:47:11,"facebook.com"
2020-12-04 11:47:10,"facebook.com"
2020-12-04 11:47:07,"facebook.com"
2020-12-04 11:47:07,"facebook.com"
2020-12-04 11:47:06,"facebook.com"
2020-12-04 11:28:10,"facebook.com"
2020-12-04 11:28:10,"facebook.com"
2020-12-04 11:28:10,"facebook.com"
2020-12-04 11:28:08,"facebook.com"
2020-12-04 11:28:06,"facebook.com"
2020-12-04 10:20:25,"google.com"
2020-12-04 10:20:09,"google.com"
2020-12-04 10:20:09,"google.com"
2020-12-04 10:19:21,"google.com"
2020-12-04 10:19:21,"pw.edu.pl"
2020-12-04 10:19:21,"google.com"
2020-12-04 10:19:06,"google.com"
2020-12-04 10:19:04,"pw.edu.pl"
2020-12-04 10:18:50,"youtube.com"
2020-12-04 09:25:39,"google.com"
2020-12-04 09:25:34,"google.com"
2020-12-04 09:06:46,"google.com"
2020-12-04 09:06:36,"google.com"
2020-12-03 21:13:00,"google.com"
2020-12-03 18:03:48,"github.com"
2020-12-03 18:02:56,"github.com"
2020-12-03 18:02:47,"github.com"
2020-12-03 18:02:43,"github.com"
2020-12-03 18:02:10,"github.com"
2020-12-03 18:02:04,"github.com"
2020-12-03 18:02:00,"github.com"
2020-12-03 18:01:59,"github.com"
2020-12-03 18:01:57,"github.com"
2020-12-03 17:47:52,"google.com"
2020-12-03 17:47:38,"google.com"
2020-12-03 17:46:34,"google.com"
2020-12-03 17:35:46,"stackoverflow.com"
2020-12-03 17:35:45,"google.com"
2020-12-03 17:32:55,"google.com"
2020-12-03 17:25:58,"stackoverflow.com"
2020-12-03 17:25:57,"google.com"
2020-12-03 17:25:10,"google.com"
2020-12-03 17:24:52,"google.com"
2020-12-03 17:24:47,"google.com"
2020-12-03 17:24:24,"google.com"
2020-12-03 17:21:21,"google.com"
2020-12-03 17:20:40,"stackoverflow.com"
2020-12-03 17:20:36,"google.com"
2020-12-03 17:20:19,"google.com"
2020-12-03 17:19:28,"google.com"
2020-12-03 17:19:17,"stackoverflow.com"
2020-12-03 17:19:09,"google.com"
2020-12-03 17:14:31,"google.com"
2020-12-03 17:14:21,"google.com"
2020-12-03 17:13:36,"stackoverflow.com"
2020-12-03 17:13:34,"google.com"
2020-12-03 17:11:58,"google.com"
2020-12-03 17:10:45,"google.com"
2020-12-03 17:10:26,"stackoverflow.com"
2020-12-03 17:10:25,"google.com"
2020-12-03 17:08:05,"stackoverflow.com"
2020-12-03 17:08:04,"google.com"
2020-12-03 17:05:20,"google.com"
2020-12-03 17:04:25,"google.com"
2020-12-03 17:03:28,"stackoverflow.com"
2020-12-03 17:03:27,"google.com"
2020-12-03 16:53:48,"google.com"
2020-12-03 16:53:41,"google.com"
2020-12-03 16:46:33,"google.com"
2020-12-03 16:43:02,"google.com"
2020-12-03 16:42:56,"google.com"
2020-12-03 16:42:49,"google.com"
2020-12-03 16:41:08,"google.com"
2020-12-03 16:40:25,"google.com"
2020-12-03 16:36:18,"google.com"
2020-12-03 16:36:10,"google.com"
2020-12-03 16:36:03,"google.com"
2020-12-03 16:35:59,"google.com"
2020-12-03 16:35:56,"google.com"
2020-12-03 16:35:41,"google.com"
2020-12-03 16:35:41,"google.com"
2020-12-03 16:32:29,"google.com"
2020-12-03 16:29:18,"google.com"
2020-12-03 16:28:30,"google.com"
2020-12-03 16:27:01,"google.com"
2020-12-03 16:24:42,"google.com"
2020-12-03 16:24:41,"google.com"
2020-12-03 15:33:50,"github.com"
2020-12-03 14:21:08,"google.com"
2020-12-03 13:56:35,"google.com"
2020-12-03 13:56:35,"google.com"
2020-12-03 11:36:00,"youtube.com"
2020-12-03 11:34:58,"youtube.com"
2020-12-03 11:34:55,"youtube.com"
2020-12-03 11:34:41,"youtube.com"
2020-12-03 11:34:41,"youtube.com"
2020-12-03 11:24:55,"youtube.com"
2020-12-03 11:24:34,"google.com"
2020-12-03 11:24:14,"pw.edu.pl"
2020-12-03 11:24:01,"google.com"
2020-12-03 11:23:55,"pw.edu.pl"
2020-12-03 11:23:54,"github.com"
2020-12-03 08:56:26,"google.com"
2020-12-02 21:40:36,"google.com"
2020-12-02 21:39:58,"google.com"
2020-12-02 21:38:51,"wikipedia.org"
2020-12-02 21:38:42,"wikipedia.org"
2020-12-02 21:38:19,"wikipedia.org"
2020-12-02 21:38:17,"google.com"
2020-12-02 21:38:01,"google.com"
2020-12-02 19:48:08,"google.com"
2020-12-02 19:42:12,"google.com"
2020-12-02 19:40:35,"google.com"
2020-12-02 19:33:15,"google.com"
2020-12-02 19:26:20,"pw.edu.pl"
2020-12-02 19:25:55,"google.com"
2020-12-02 19:25:51,"pw.edu.pl"
2020-12-02 19:25:43,"google.com"
2020-12-02 19:25:42,"google.com"
2020-12-02 19:25:36,"youtube.com"
2020-12-02 19:25:36,"google.com"
2020-12-02 19:25:33,"github.com"
2020-12-02 19:25:32,"wikipedia.org"
2020-12-02 19:25:32,"github.com"
2020-12-02 19:25:21,"github.com"
2020-12-02 19:08:24,"google.com"
2020-12-02 19:08:24,"google.com"
2020-12-02 19:06:18,"stackoverflow.com"
2020-12-02 19:06:12,"google.com"
2020-12-02 18:29:01,"google.com"
2020-12-02 18:27:47,"github.com"
2020-12-02 18:27:35,"google.com"
2020-12-02 18:27:27,"stackoverflow.com"
2020-12-02 18:27:24,"google.com"
2020-12-02 17:22:59,"youtube.com"
2020-12-02 17:22:49,"youtube.com"
2020-12-02 17:22:26,"youtube.com"
2020-12-02 17:22:18,"youtube.com"
2020-12-02 17:21:35,"youtube.com"
2020-12-02 17:21:28,"youtube.com"
2020-12-02 17:16:47,"youtube.com"
2020-12-02 17:16:46,"youtube.com"
2020-12-02 17:16:29,"youtube.com"
2020-12-02 17:16:25,"youtube.com"
2020-12-02 17:12:27,"youtube.com"
2020-12-02 17:12:25,"youtube.com"
2020-12-02 17:12:14,"youtube.com"
2020-12-02 17:12:10,"youtube.com"
2020-12-02 17:11:57,"youtube.com"
2020-12-02 17:11:48,"youtube.com"
2020-12-02 17:07:58,"google.com"
2020-12-02 17:04:49,"google.com"
2020-12-02 17:03:50,"google.com"
2020-12-02 17:03:21,"google.com"
2020-12-02 16:51:36,"facebook.com"
2020-12-02 16:51:19,"facebook.com"
2020-12-02 16:51:18,"facebook.com"
2020-12-02 16:51:18,"facebook.com"
2020-12-02 16:48:48,"google.com"
2020-12-02 16:48:48,"google.com"
2020-12-02 16:46:48,"google.com"
2020-12-02 16:36:21,"facebook.com"
2020-12-02 16:36:19,"facebook.com"
2020-12-02 16:36:15,"facebook.com"
2020-12-02 16:35:36,"google.com"
2020-12-02 16:35:29,"google.com"
2020-12-02 16:35:25,"google.com"
2020-12-02 15:28:54,"youtube.com"
2020-12-02 15:28:54,"youtube.com"
2020-12-02 13:16:15,"stackoverflow.com"
2020-12-02 13:16:14,"google.com"
2020-12-02 13:16:04,"google.com"
2020-12-02 13:13:41,"google.com"
2020-12-02 13:06:19,"stackoverflow.com"
2020-12-02 13:06:19,"google.com"
2020-12-02 13:02:40,"stackoverflow.com"
2020-12-02 13:02:39,"google.com"
2020-12-02 13:01:53,"google.com"
2020-12-02 13:01:49,"stackoverflow.com"
2020-12-02 13:01:47,"google.com"
2020-12-02 13:01:38,"google.com"
2020-12-02 12:58:15,"google.com"
2020-12-02 12:55:56,"google.com"
2020-12-02 12:53:55,"stackoverflow.com"
2020-12-02 12:53:54,"google.com"
2020-12-02 12:35:11,"google.com"
2020-12-02 11:17:23,"stackoverflow.com"
2020-12-02 11:17:21,"google.com"
2020-12-02 10:48:28,"stackoverflow.com"
2020-12-02 10:48:27,"google.com"
2020-12-02 10:47:58,"stackoverflow.com"
2020-12-02 10:47:57,"google.com"
2020-12-02 10:40:32,"stackoverflow.com"
2020-12-02 10:40:31,"google.com"
2020-12-02 10:34:32,"stackoverflow.com"
2020-12-02 10:34:32,"google.com"
2020-12-02 10:31:53,"google.com"
2020-12-02 10:31:48,"google.com"
2020-12-02 10:29:42,"stackoverflow.com"
2020-12-02 10:29:41,"google.com"
2020-12-02 10:25:30,"google.com"
2020-12-02 10:25:23,"google.com"
2020-12-02 10:25:01,"google.com"
2020-12-02 10:24:48,"google.com"
2020-12-02 10:24:40,"google.com"
2020-12-02 10:24:05,"stackoverflow.com"
2020-12-02 10:23:59,"google.com"
2020-12-02 10:17:44,"google.com"
2020-12-02 10:17:44,"google.com"
2020-12-02 10:11:49,"pw.edu.pl"
2020-12-02 10:11:45,"pw.edu.pl"
2020-12-02 10:11:42,"pw.edu.pl"
2020-12-02 10:11:39,"pw.edu.pl"
2020-12-02 10:06:34,"youtube.com"
2020-12-02 10:06:26,"google.com"
2020-12-02 10:06:23,"pw.edu.pl"
2020-12-02 10:06:21,"google.com"
2020-12-02 10:06:18,"google.com"
2020-12-02 10:06:18,"github.com"
2020-12-02 10:06:16,"google.com"
2020-12-02 10:06:07,"pw.edu.pl"
2020-12-02 10:06:04,"pw.edu.pl"
2020-12-02 09:31:11,"pw.edu.pl"
2020-12-02 09:28:23,"pw.edu.pl"
2020-12-02 09:27:55,"pw.edu.pl"
2020-12-02 09:27:50,"pw.edu.pl"
2020-12-02 09:27:44,"pw.edu.pl"
2020-12-02 09:27:40,"pw.edu.pl"
2020-12-02 09:27:37,"youtube.com"
2020-12-02 09:27:15,"google.com"
2020-12-02 09:26:58,"google.com"
2020-12-02 09:26:56,"pw.edu.pl"
2020-12-02 09:26:36,"google.com"
2020-12-02 09:26:28,"facebook.com"
2020-12-02 09:26:28,"facebook.com"
2020-12-02 09:26:22,"google.com"
2020-12-02 09:26:19,"github.com"
2020-12-02 09:26:05,"google.com"
2020-12-02 09:25:55,"facebook.com"
2020-12-02 08:20:32,"google.com"
2020-12-02 08:18:44,"google.com"
2020-12-02 08:18:43,"google.com"
2020-12-02 08:18:37,"google.com"
2020-12-02 08:18:10,"wikipedia.org"
2020-12-02 08:17:59,"google.com"
2020-12-02 08:17:45,"github.com"
2020-12-02 08:17:44,"github.com"
2020-12-02 08:16:20,"github.com"
2020-12-02 08:13:55,"github.com"
2020-12-01 22:57:43,"google.com"
2020-12-01 22:57:42,"google.com"
2020-12-01 22:43:14,"google.com"
2020-12-01 21:17:14,"wikipedia.org"
2020-12-01 21:17:13,"google.com"
2020-12-01 21:17:12,"google.com"
2020-12-01 21:16:53,"google.com"
2020-12-01 21:16:48,"github.com"
2020-12-01 21:09:48,"google.com"
2020-12-01 21:05:48,"google.com"
2020-12-01 21:05:29,"stackoverflow.com"
2020-12-01 21:05:27,"google.com"
2020-12-01 21:05:23,"google.com"
2020-12-01 21:04:08,"google.com"
2020-12-01 21:01:19,"google.com"
2020-12-01 20:54:40,"google.com"
2020-12-01 20:54:40,"google.com"
2020-12-01 20:54:22,"google.com"
2020-12-01 20:54:22,"google.com"
2020-12-01 20:53:11,"github.com"
2020-12-01 20:52:47,"google.com"
2020-12-01 20:49:35,"wikipedia.org"
2020-12-01 20:49:30,"google.com"
2020-12-01 20:39:28,"google.com"
2020-12-01 20:39:28,"google.com"
2020-12-01 20:39:20,"google.com"
2020-12-01 20:39:12,"google.com"
2020-12-01 20:39:11,"google.com"
2020-12-01 20:39:02,"google.com"
2020-12-01 20:39:00,"google.com"
2020-12-01 20:36:13,"google.com"
2020-12-01 20:36:10,"google.com"
2020-12-01 19:47:07,"google.com"
2020-12-01 19:47:04,"google.com"
2020-12-01 19:46:46,"google.com"
2020-12-01 19:29:40,"wikipedia.org"
2020-12-01 19:29:38,"google.com"
2020-12-01 19:23:36,"google.com"
2020-12-01 19:03:57,"google.com"
2020-12-01 19:03:52,"wikipedia.org"
2020-12-01 19:03:38,"google.com"
2020-12-01 19:03:32,"google.com"
2020-12-01 19:03:31,"google.com"
2020-12-01 18:57:31,"wikipedia.org"
2020-12-01 18:57:30,"google.com"
2020-12-01 18:51:06,"google.com"
2020-12-01 18:47:19,"youtube.com"
2020-12-01 18:47:12,"google.com"
2020-12-01 18:47:07,"google.com"
2020-12-01 18:47:03,"pw.edu.pl"
2020-12-01 18:47:02,"google.com"
2020-12-01 18:47:00,"stackoverflow.com"
2020-12-01 18:46:59,"stackoverflow.com"
2020-12-01 18:46:57,"google.com"
2020-12-01 18:46:54,"google.com"
2020-12-01 18:46:52,"google.com"
2020-12-01 18:46:39,"google.com"
2020-12-01 18:46:38,"github.com"
2020-12-01 18:46:24,"google.com"
2020-12-01 18:46:18,"wikipedia.org"
2020-12-01 18:43:21,"google.com"
2020-12-01 18:40:19,"google.com"
2020-12-01 18:40:19,"google.com"
2020-12-01 18:40:05,"google.com"
2020-12-01 18:38:25,"google.com"
2020-12-01 18:36:21,"google.com"
2020-12-01 18:35:47,"google.com"
2020-12-01 18:35:23,"google.com"
2020-12-01 18:35:17,"google.com"
2020-12-01 18:09:57,"google.com"
2020-12-01 17:35:29,"wikipedia.org"
2020-12-01 17:35:25,"google.com"
2020-12-01 17:28:26,"google.com"
2020-12-01 17:25:41,"google.com"
2020-12-01 17:25:40,"google.com"
2020-12-01 16:22:13,"google.com"
2020-12-01 16:19:04,"google.com"
2020-12-01 16:18:52,"google.com"
2020-12-01 16:18:38,"google.com"
2020-12-01 14:02:05,"google.com"
2020-12-01 13:57:13,"google.com"
2020-12-01 13:57:05,"google.com"
2020-12-01 13:56:54,"google.com"
2020-12-01 13:56:52,"google.com"
2020-12-01 13:56:46,"google.com"
2020-12-01 13:56:44,"google.com"
2020-12-01 13:55:17,"youtube.com"
2020-12-01 13:55:14,"pw.edu.pl"
2020-12-01 13:55:12,"google.com"
2020-12-01 13:55:10,"stackoverflow.com"
2020-12-01 13:55:06,"stackoverflow.com"
2020-12-01 13:55:05,"google.com"
2020-12-01 13:55:00,"google.com"
2020-12-01 13:54:52,"google.com"
2020-12-01 13:54:46,"github.com"
2020-12-01 13:54:18,"wikipedia.org"
2020-12-01 12:12:29,"google.com"
2020-12-01 12:12:28,"google.com"
2020-12-01 11:53:54,"google.com"
2020-12-01 11:46:25,"google.com"
2020-12-01 11:32:25,"wikipedia.org"
2020-12-01 11:32:24,"google.com"
2020-12-01 10:27:07,"pw.edu.pl"
2020-12-01 10:27:03,"pw.edu.pl"
2020-12-01 09:50:59,"pw.edu.pl"
2020-12-01 09:50:57,"pw.edu.pl"
2020-12-01 09:50:41,"youtube.com"
2020-12-01 09:50:25,"pw.edu.pl"
2020-12-01 09:50:19,"google.com"
2020-12-01 09:50:16,"stackoverflow.com"
2020-12-01 09:50:12,"stackoverflow.com"
2020-12-01 09:50:05,"google.com"
2020-12-01 09:50:02,"google.com"
2020-12-01 09:49:50,"github.com"
2020-12-01 09:49:50,"google.com"
2020-12-01 09:49:43,"pw.edu.pl"
2020-12-01 09:49:37,"pw.edu.pl"
2020-12-01 09:49:37,"google.com"
2020-12-01 09:49:20,"facebook.com"
2020-12-01 09:49:20,"facebook.com"
2020-11-30 23:11:46,"google.com"
2020-11-30 23:11:45,"google.com"
2020-11-30 23:11:14,"google.com"
2020-11-30 23:09:49,"google.com"
2020-11-30 23:07:06,"google.com"
2020-11-30 23:07:05,"google.com"
2020-11-30 22:53:20,"google.com"
2020-11-30 22:53:05,"google.com"
2020-11-30 22:40:23,"google.com"
2020-11-30 22:39:26,"stackoverflow.com"
2020-11-30 22:39:23,"google.com"
2020-11-30 22:39:23,"google.com"
2020-11-30 22:37:34,"google.com"
2020-11-30 20:31:07,"google.com"
2020-11-30 19:44:40,"wikipedia.org"
2020-11-30 19:44:38,"wikipedia.org"
2020-11-30 19:42:38,"wikipedia.org"
